Timestamp,roll,pitch,heading,rollRate,pitchRate,yawRate,groundSpeed,airSpeed,airSpeedSetpoint,climbRate,altitudeRelative,altitudeAMSL,altitudeTuning,altitudeTuningSetpoint,xTrackError,flightDistance,flightTime,distanceToHome,missionItemIndex,headingToNextWP,headingToHome,distanceToGCS,throttlePct,hobbs,battery0.id,battery0.batteryFunction,battery0.batteryType,battery0.voltage,battery0.current,battery0.mahConsumed,battery0.temperature,battery0.percentRemaining,battery0.timeRemaining,battery0.timeRemainingStr,battery0.chargeState,battery0.instantPower,clock.currentTime,clock.currentDate,distanceSensor.rotationNone,distanceSensor.rotationYaw45,distanceSensor.rotationYaw90,distanceSensor.rotationYaw135,distanceSensor.rotationYaw180,distanceSensor.rotationYaw225,distanceSensor.rotationYaw270,distanceSensor.rotationYaw315,distanceSensor.rotationPitch90,distanceSensor.rotationPitch270,distanceSensor.minDistance,distanceSensor.maxDistance,escStatus.index,escStatus.rpm1,escStatus.rpm2,escStatus.rpm3,escStatus.rpm4,escStatus.current1,escStatus.current2,escStatus.current3,escStatus.current4,escStatus.voltage1,escStatus.voltage2,escStatus.voltage3,escStatus.voltage4,estimatorStatus.goodAttitudeEsimate,estimatorStatus.goodHorizVelEstimate,estimatorStatus.goodVertVelEstimate,estimatorStatus.goodHorizPosRelEstimate,estimatorStatus.goodHorizPosAbsEstimate,estimatorStatus.goodVertPosAbsEstimate,estimatorStatus.goodVertPosAGLEstimate,estimatorStatus.goodConstPosModeEstimate,estimatorStatus.goodPredHorizPosRelEstimate,estimatorStatus.goodPredHorizPosAbsEstimate,estimatorStatus.gpsGlitch,estimatorStatus.accelError,estimatorStatus.velRatio,estimatorStatus.horizPosRatio,estimatorStatus.vertPosRatio,estimatorStatus.magRatio,estimatorStatus.haglRatio,estimatorStatus.tasRatio,estimatorStatus.horizPosAccuracy,estimatorStatus.vertPosAccuracy,gps.lat,gps.lon,gps.mgrs,gps.hdop,gps.vdop,gps.courseOverGround,gps.lock,gps.count,gps2.lat,gps2.lon,gps2.mgrs,gps2.hdop,gps2.vdop,gps2.courseOverGround,gps2.lock,gps2.count,hygrometer.temperature,hygrometer.humidity,hygrometer.hygrometerid,localPosition.x,localPosition.y,localPosition.z,localPosition.vx,localPosition.vy,localPosition.vz,localPositionSetpoint.x,localPositionSetpoint.y,localPositionSetpoint.z,localPositionSetpoint.vx,localPositionSetpoint.vy,localPositionSetpoint.vz,setpoint.roll,setpoint.pitch,setpoint.yaw,setpoint.rollRate,setpoint.pitchRate,setpoint.yawRate,temperature.temperature1,temperature.temperature2,temperature.temperature3,terrain.blocksPending,terrain.blocksLoaded,vibration.xAxis,vibration.yAxis,vibration.zAxis,vibration.clipCount1,vibration.clipCount2,vibration.clipCount3,wind.direction,wind.speed,wind.verticalSpeed
36:07.7,0,0,52,0,0,0,0.1,0.1,0.084,0.2,0.3,37.3,0.55,0.52,0,0,00:00:00,0.1,0,--.--,--.--,14764187,0,0000:00:00,0,0,0,16.4,0.05,5,--.--,99,--.--,--:--:--,0,0.82,12:36:07,10-02-2022,--.--,--.--,--.--,--.--,--.--,--.--,--.--,--.--,--.--,--.--,--.--,--.--,0,0,0,0,0,0,0,0,0,0,0,0,0,FALSE,FALSE,FALSE,FALSE,FALSE,FALSE,FALSE,FALSE,FALSE,FALSE,FALSE,FALSE,--.--,--.--,--.--,--.--,--.--,--.--,--.--,--.--,11.2552511,75.8292722,43PEN 90516 44330,0.6,1.1,244.3,3,18,--.--,--.--,,--.--,--.--,--.--,0,0,--.--,--.--,0,0,0.1,-0.2,0,0,-0.3,--.--,--.--,--.--,--.--,--.--,--.--,--.--,--.--,--.--,--.--,--.--,--.--,48.58,--.--,--.--,56,0,0,0,0,0,0,0,--.--,--.--,--.--
36:08.7,0,0,52,0,0,0,0,0.1,0.056,0.2,0.4,37.4,0.63,0.62,0,0,00:00:01,0.1,0,--.--,--.--,14764187,0,0000:00:00,0,0,0,16.41,0.05,5,--.--,99,--.--,--:--:--,0,0.82,12:36:08,10-02-2022,--.--,--.--,--.--,--.--,--.--,--.--,--.--,--.--,--.--,--.--,--.--,--.--,0,0,0,0,0,0,0,0,0,0,0,0,0,FALSE,FALSE,FALSE,FALSE,FALSE,FALSE,FALSE,FALSE,FALSE,FALSE,FALSE,FALSE,--.--,--.--,--.--,--.--,--.--,--.--,--.--,--.--,11.255251,75.8292717,43PEN 90516 44330,0.6,1,244.3,3,19,--.--,--.--,,--.--,--.--,--.--,0,0,--.--,--.--,0,0,0.1,-0.3,0,0,-0.2,--.--,--.--,--.--,--.--,--.--,--.--,--.--,--.--,--.--,--.--,--.--,--.--,48.59,--.--,--.--,56,0,0,0,0,0,0,0,--.--,--.--,--.--
36:09.7,0,0,52,0,0,0,0,0.1,0.177,0.2,0.4,37.4,0.7,0.69,0,0,00:00:02,0.2,0,--.--,--.--,14764186.9,0,0000:00:00,0,0,0,16.38,0.11,5,--.--,99,--.--,--:--:--,0,1.8,12:36:09,10-02-2022,--.--,--.--,--.--,--.--,--.--,--.--,--.--,--.--,--.--,--.--,--.--,--.--,0,0,0,0,0,0,0,0,0,0,0,0,0,FALSE,FALSE,FALSE,FALSE,FALSE,FALSE,FALSE,FALSE,FALSE,FALSE,FALSE,FALSE,--.--,--.--,--.--,--.--,--.--,--.--,--.--,--.--,11.2552509,75.8292725,43PEN 90517 44330,0.6,1,244.3,3,19,--.--,--.--,,--.--,--.--,--.--,0,0,--.--,--.--,0,0,0.2,-0.4,0,0,-0.2,--.--,--.--,--.--,--.--,--.--,--.--,--.--,--.--,--.--,--.--,--.--,--.--,48.61,--.--,--.--,56,0,3.7,4.1,4.2,0,0,0,--.--,--.--,--.--
36:10.7,0,0,52,0,0,0,0,0.1,0.125,0.2,0.4,37.4,0.71,0.7,0,0,00:00:03,0.2,0,--.--,--.--,14764186.9,0,0000:00:00,0,0,0,16.31,0.06,5,--.--,99,--.--,--:--:--,0,0.98,12:36:10,10-02-2022,--.--,--.--,--.--,--.--,--.--,--.--,--.--,--.--,--.--,--.--,--.--,--.--,0,0,0,0,0,0,0,0,0,0,0,0,0,FALSE,FALSE,FALSE,FALSE,FALSE,FALSE,FALSE,FALSE,FALSE,FALSE,FALSE,FALSE,--.--,--.--,--.--,--.--,--.--,--.--,--.--,--.--,11.255251,75.8292727,43PEN 90517 44330,0.6,1,244.3,3,19,--.--,--.--,,--.--,--.--,--.--,0,0,--.--,--.--,0,0,0.2,-0.4,0,0,-0.2,--.--,--.--,--.--,--.--,--.--,--.--,--.--,--.--,--.--,--.--,--.--,--.--,48.61,--.--,--.--,56,0,2.1,4.1,4.8,0,0,0,--.--,--.--,--.--
36:11.7,0,0,52,0,0,0,0,0.2,0.07,0.1,0.4,37.4,0.72,0.72,0,0,00:00:04,0.3,0,--.--,--.--,14764186.8,0,0000:00:00,0,0,0,16.41,0.08,5,--.--,99,--.--,--:--:--,0,1.31,12:36:11,10-02-2022,--.--,--.--,--.--,--.--,--.--,--.--,--.--,--.--,--.--,--.--,--.--,--.--,0,0,0,0,0,0,0,0,0,0,0,0,0,FALSE,FALSE,FALSE,FALSE,FALSE,FALSE,FALSE,FALSE,FALSE,FALSE,FALSE,FALSE,--.--,--.--,--.--,--.--,--.--,--.--,--.--,--.--,11.2552521,75.8292744,43PEN 90517 44330,0.6,1,244.3,3,19,--.--,--.--,,--.--,--.--,--.--,0,0,--.--,--.--,0,0.1,0.3,-0.4,0,0,-0.1,--.--,--.--,--.--,--.--,--.--,--.--,--.--,--.--,--.--,--.--,--.--,--.--,48.64,--.--,--.--,56,0,1.2,1,1.9,0,0,0,--.--,--.--,--.--
36:12.7,0,0,52,0,0,0,0,0.1,0.144,0.1,0.4,37.4,0.69,0.69,0,0,00:00:04,0.3,0,--.--,--.--,14764187.1,0,0000:00:00,0,0,0,16.41,0.08,5,--.--,99,--.--,--:--:--,0,1.31,12:36:12,10-02-2022,--.--,--.--,--.--,--.--,--.--,--.--,--.--,--.--,--.--,--.--,--.--,--.--,0,0,0,0,0,0,0,0,0,0,0,0,0,FALSE,FALSE,FALSE,FALSE,FALSE,FALSE,FALSE,FALSE,FALSE,FALSE,FALSE,FALSE,--.--,--.--,--.--,--.--,--.--,--.--,--.--,--.--,11.2552521,75.8292744,43PEN 90517 44330,0.6,1,244.3,3,19,--.--,--.--,,--.--,--.--,--.--,0,0,--.--,--.--,0,0.1,0.3,-0.4,0,0,-0.1,--.--,--.--,--.--,--.--,--.--,--.--,--.--,--.--,--.--,--.--,--.--,--.--,48.65,--.--,--.--,56,0,0.2,0.2,0.5,0,0,0,--.--,--.--,--.--
36:13.7,0,0,52,0,0,0,0,0.1,0.054,0.1,0.4,37.4,0.68,0.69,0,0,00:00:04,0.4,0,--.--,--.--,14764187,0,0000:00:00,0,0,0,16.44,0.1,5,--.--,99,--.--,--:--:--,0,1.64,12:36:13,10-02-2022,--.--,--.--,--.--,--.--,--.--,--.--,--.--,--.--,--.--,--.--,--.--,--.--,0,0,0,0,0,0,0,0,0,0,0,0,0,FALSE,FALSE,FALSE,FALSE,FALSE,FALSE,FALSE,FALSE,FALSE,FALSE,FALSE,FALSE,--.--,--.--,--.--,--.--,--.--,--.--,--.--,--.--,11.2552525,75.8292744,43PEN 90517 44330,0.6,1,244.3,3,19,--.--,--.--,,--.--,--.--,--.--,0,0,--.--,--.--,0,0.1,0.3,-0.4,0,0,-0.1,--.--,--.--,--.--,--.--,--.--,--.--,--.--,--.--,--.--,--.--,--.--,--.--,48.66,--.--,--.--,56,0,0.1,0.2,0.5,0,0,0,--.--,--.--,--.--
36:14.7,0,0,52,0,0,0,0,0.1,0.044,0.1,0.3,37.3,0.62,0.62,0,0,00:00:04,0.4,0,--.--,--.--,14764187.1,0,0000:00:00,0,0,0,16.43,0.09,5,--.--,99,--.--,--:--:--,0,1.48,12:36:14,10-02-2022,--.--,--.--,--.--,--.--,--.--,--.--,--.--,--.--,--.--,--.--,--.--,--.--,0,0,0,0,0,0,0,0,0,0,0,0,0,FALSE,FALSE,FALSE,FALSE,FALSE,FALSE,FALSE,FALSE,FALSE,FALSE,FALSE,FALSE,--.--,--.--,--.--,--.--,--.--,--.--,--.--,--.--,11.2552525,75.8292751,43PEN 90517 44330,0.6,1,244.3,3,19,--.--,--.--,,--.--,--.--,--.--,0,0,--.--,--.--,0,0.1,0.4,-0.3,0,0,-0.1,--.--,--.--,--.--,--.--,--.--,--.--,--.--,--.--,--.--,--.--,--.--,--.--,48.69,--.--,--.--,56,0,0,0,0,0,0,0,--.--,--.--,--.--
36:15.7,0,0,52,0,0,0,0,0.1,0.042,0.1,0.3,37.3,0.59,0.6,0,0,00:00:04,0.5,0,--.--,--.--,14764187.4,0,0000:00:00,0,0,0,16.42,0.08,5,--.--,99,--.--,--:--:--,0,1.31,12:36:15,10-02-2022,--.--,--.--,--.--,--.--,--.--,--.--,--.--,--.--,--.--,--.--,--.--,--.--,0,0,0,0,0,0,0,0,0,0,0,0,0,FALSE,FALSE,FALSE,FALSE,FALSE,FALSE,FALSE,FALSE,FALSE,FALSE,FALSE,FALSE,--.--,--.--,--.--,--.--,--.--,--.--,--.--,--.--,11.2552527,75.8292759,43PEN 90517 44330,0.6,1,244.3,3,19,--.--,--.--,,--.--,--.--,--.--,0,0,--.--,--.--,0,0.1,0.5,-0.3,0,0,-0.1,--.--,--.--,--.--,--.--,--.--,--.--,--.--,--.--,--.--,--.--,--.--,--.--,48.7,--.--,--.--,56,0,0,0,0,0,0,0,--.--,--.--,--.--
36:16.7,0,0,52,0,0,0,0,0,0.036,0,0.3,37.3,0.57,0.57,0,0,00:00:04,0.6,0,--.--,--.--,14764187.3,0,0000:00:00,0,0,0,16.4,0.07,5,--.--,99,--.--,--:--:--,0,1.15,12:36:16,10-02-2022,--.--,--.--,--.--,--.--,--.--,--.--,--.--,--.--,--.--,--.--,--.--,--.--,0,0,0,0,0,0,0,0,0,0,0,0,0,FALSE,FALSE,FALSE,FALSE,FALSE,FALSE,FALSE,FALSE,FALSE,FALSE,FALSE,FALSE,--.--,--.--,--.--,--.--,--.--,--.--,--.--,--.--,11.2552532,75.829276,43PEN 90517 44330,0.6,1,244.3,3,19,--.--,--.--,,--.--,--.--,--.--,0,0,--.--,--.--,0,0.1,0.5,-0.3,0,0,-0.1,--.--,--.--,--.--,--.--,--.--,--.--,--.--,--.--,--.--,--.--,--.--,--.--,48.73,--.--,--.--,56,0,0,0,0,0,0,0,--.--,--.--,--.--
36:17.7,0,0,52,0,0,0,0,0.1,0.018,0,0.3,37.3,0.56,0.56,0,0,00:00:04,0.6,0,--.--,--.--,14764187.3,0,0000:00:00,0,0,0,16.38,0.06,5,--.--,99,--.--,--:--:--,0,0.98,12:36:17,10-02-2022,--.--,--.--,--.--,--.--,--.--,--.--,--.--,--.--,--.--,--.--,--.--,--.--,0,0,0,0,0,0,0,0,0,0,0,0,0,FALSE,FALSE,FALSE,FALSE,FALSE,FALSE,FALSE,FALSE,FALSE,FALSE,FALSE,FALSE,--.--,--.--,--.--,--.--,--.--,--.--,--.--,--.--,11.2552533,75.8292763,43PEN 90517 44331,0.6,1.1,244.3,3,16,--.--,--.--,,--.--,--.--,--.--,0,0,--.--,--.--,0,0.2,0.6,-0.3,0,0,0,--.--,--.--,--.--,--.--,--.--,--.--,--.--,--.--,--.--,--.--,--.--,--.--,48.75,--.--,--.--,56,0,0,0,0,0,0,0,--.--,--.--,--.--
36:18.7,0,0,52,0,0,0,0,0,0.048,0,0.3,37.3,0.56,0.56,0,0,00:00:04,0.7,0,--.--,--.--,14764187,0,0000:00:00,0,0,0,16.44,0.1,5,--.--,99,--.--,--:--:--,0,1.64,12:36:18,10-02-2022,--.--,--.--,--.--,--.--,--.--,--.--,--.--,--.--,--.--,--.--,--.--,--.--,0,0,0,0,0,0,0,0,0,0,0,0,0,FALSE,FALSE,FALSE,FALSE,FALSE,FALSE,FALSE,FALSE,FALSE,FALSE,FALSE,FALSE,--.--,--.--,--.--,--.--,--.--,--.--,--.--,--.--,11.2552533,75.8292764,43PEN 90517 44331,0.6,1,244.3,3,19,--.--,--.--,,--.--,--.--,--.--,0,0,--.--,--.--,0,0.2,0.7,-0.3,0,0,0,--.--,--.--,--.--,--.--,--.--,--.--,--.--,--.--,--.--,--.--,--.--,--.--,48.75,--.--,--.--,56,0,0,0,0,0,0,0,--.--,--.--,--.--
36:19.7,0,0,52,0,0,0,0,0.1,0.093,0,0.3,37.3,0.56,0.56,0,0,00:00:04,0.7,0,--.--,--.--,14764187,0,0000:00:00,0,0,0,16.41,0.08,5,--.--,99,--.--,--:--:--,0,1.31,12:36:19,10-02-2022,--.--,--.--,--.--,--.--,--.--,--.--,--.--,--.--,--.--,--.--,--.--,--.--,0,0,0,0,0,0,0,0,0,0,0,0,0,FALSE,FALSE,FALSE,FALSE,FALSE,FALSE,FALSE,FALSE,FALSE,FALSE,FALSE,FALSE,--.--,--.--,--.--,--.--,--.--,--.--,--.--,--.--,11.2552529,75.8292769,43PEN 90517 44330,0.6,1,244.3,3,18,--.--,--.--,,--.--,--.--,--.--,0,0,--.--,--.--,0,0.2,0.7,-0.3,0,0,0,--.--,--.--,--.--,--.--,--.--,--.--,--.--,--.--,--.--,--.--,--.--,--.--,48.78,--.--,--.--,56,0,0,0,0,0,0,0,--.--,--.--,--.--
36:20.7,0,0,52,0,0,0,0,0.3,0.028,0,0.3,37.3,0.54,0.54,0,0,00:00:04,0.7,0,--.--,--.--,14764187,0,0000:00:00,0,0,0,16.4,0.06,5,--.--,99,--.--,--:--:--,0,0.98,12:36:20,10-02-2022,--.--,--.--,--.--,--.--,--.--,--.--,--.--,--.--,--.--,--.--,--.--,--.--,0,0,0,0,0,0,0,0,0,0,0,0,0,FALSE,FALSE,FALSE,FALSE,FALSE,FALSE,FALSE,FALSE,FALSE,FALSE,FALSE,FALSE,--.--,--.--,--.--,--.--,--.--,--.--,--.--,--.--,11.2552535,75.8292772,43PEN 90517 44331,0.6,1,244.3,3,19,--.--,--.--,,--.--,--.--,--.--,0,0,--.--,--.--,0,0.1,0.7,-0.3,0,0,0,--.--,--.--,--.--,--.--,--.--,--.--,--.--,--.--,--.--,--.--,--.--,--.--,48.8,--.--,--.--,56,0,0,0,0,0,0,0,--.--,--.--,--.--
36:21.7,0,0.1,52,0,0,0,0,0.1,0.025,0,0.2,37.2,0.47,0.51,0,0,00:00:04,0.7,0,--.--,--.--,14764186.8,0,0000:00:00,0,0,0,16.4,0.07,5,--.--,99,--.--,--:--:--,0,1.15,12:36:21,10-02-2022,--.--,--.--,--.--,--.--,--.--,--.--,--.--,--.--,--.--,--.--,--.--,--.--,0,0,0,0,0,0,0,0,0,0,0,0,0,FALSE,FALSE,FALSE,FALSE,FALSE,FALSE,FALSE,FALSE,FALSE,FALSE,FALSE,FALSE,--.--,--.--,--.--,--.--,--.--,--.--,--.--,--.--,11.2552537,75.8292771,43PEN 90517 44331,0.6,1,244.3,3,18,--.--,--.--,,--.--,--.--,--.--,0,0,--.--,--.--,0,0.1,0.7,-0.2,0,0,0,--.--,--.--,--.--,--.--,--.--,--.--,--.--,--.--,--.--,--.--,--.--,--.--,48.81,--.--,--.--,56,0,0,0,0,0,0,0,--.--,--.--,--.--
36:22.7,0,0,52,0,0,0,0,0.1,0.063,0,0.2,37.2,0.49,0.48,0,0,00:00:04,0.7,0,--.--,--.--,14764186.7,0,0000:00:00,0,0,0,16.42,0.08,5,--.--,99,--.--,--:--:--,0,1.31,12:36:22,10-02-2022,--.--,--.--,--.--,--.--,--.--,--.--,--.--,--.--,--.--,--.--,--.--,--.--,0,0,0,0,0,0,0,0,0,0,0,0,0,FALSE,FALSE,FALSE,FALSE,FALSE,FALSE,FALSE,FALSE,FALSE,FALSE,FALSE,FALSE,--.--,--.--,--.--,--.--,--.--,--.--,--.--,--.--,11.2552544,75.8292774,43PEN 90517 44331,0.6,1,244.3,3,19,--.--,--.--,,--.--,--.--,--.--,0,0,--.--,--.--,0,0.2,0.7,-0.2,0,0,0,--.--,--.--,--.--,--.--,--.--,--.--,--.--,--.--,--.--,--.--,--.--,--.--,48.83,--.--,--.--,56,0,0,0,0,0,0,0,--.--,--.--,--.--
36:23.7,-0.1,0,52,0,0,0,0.1,0.2,0.246,0,0.2,37.2,0.51,0.51,0,0,00:00:04,0.7,0,--.--,--.--,14764186.5,0,0000:00:00,0,0,0,16.34,0.02,5,--.--,99,--.--,--:--:--,0,0.33,12:36:23,10-02-2022,--.--,--.--,--.--,--.--,--.--,--.--,--.--,--.--,--.--,--.--,--.--,--.--,0,0,0,0,0,0,0,0,0,0,0,0,0,FALSE,FALSE,FALSE,FALSE,FALSE,FALSE,FALSE,FALSE,FALSE,FALSE,FALSE,FALSE,--.--,--.--,--.--,--.--,--.--,--.--,--.--,--.--,11.255256,75.8292767,43PEN 90517 44331,0.6,1,244.3,3,18,--.--,--.--,,--.--,--.--,--.--,0,0,--.--,--.--,0,0.4,0.6,-0.2,0,-0.1,0,--.--,--.--,--.--,--.--,--.--,--.--,--.--,--.--,--.--,--.--,--.--,--.--,48.86,--.--,--.--,56,0,0,0,0,0,0,0,--.--,--.--,--.--
36:24.7,0,0,52,0,0,0,0,0.1,0.169,0,0.1,37.1,0.43,0.47,0,0,00:00:04,0.8,0,--.--,--.--,14764186.7,0,0000:00:00,0,0,0,16.39,0.06,5,--.--,99,--.--,--:--:--,0,0.98,12:36:24,10-02-2022,--.--,--.--,--.--,--.--,--.--,--.--,--.--,--.--,--.--,--.--,--.--,--.--,0,0,0,0,0,0,0,0,0,0,0,0,0,FALSE,FALSE,FALSE,FALSE,FALSE,FALSE,FALSE,FALSE,FALSE,FALSE,FALSE,FALSE,--.--,--.--,--.--,--.--,--.--,--.--,--.--,--.--,11.2552556,75.8292774,43PEN 90517 44331,0.6,1,244.3,3,19,--.--,--.--,,--.--,--.--,--.--,0,0,--.--,--.--,0,0.3,0.7,-0.1,0,0,0,--.--,--.--,--.--,--.--,--.--,--.--,--.--,--.--,--.--,--.--,--.--,--.--,48.87,--.--,--.--,56,0,0,0,0,0,0,0,--.--,--.--,--.--
36:25.7,0,0,52,0,0,0,0.1,0.1,0.051,0,0.1,37.1,0.43,0.43,0,0,00:00:04,0.9,0,--.--,--.--,14764186.5,0,0000:00:00,0,0,0,16.36,0.03,5,--.--,99,--.--,--:--:--,0,0.49,12:36:25,10-02-2022,--.--,--.--,--.--,--.--,--.--,--.--,--.--,--.--,--.--,--.--,--.--,--.--,0,0,0,0,0,0,0,0,0,0,0,0,0,FALSE,FALSE,FALSE,FALSE,FALSE,FALSE,FALSE,FALSE,FALSE,FALSE,FALSE,FALSE,--.--,--.--,--.--,--.--,--.--,--.--,--.--,--.--,11.2552573,75.8292778,43PEN 90517 44331,0.6,1,244.3,3,19,--.--,--.--,,--.--,--.--,--.--,0,0,--.--,--.--,0,0.6,0.7,-0.1,0.1,0,0,--.--,--.--,--.--,--.--,--.--,--.--,--.--,--.--,--.--,--.--,--.--,--.--,48.91,--.--,--.--,56,0,0,0,0,0,0,0,--.--,--.--,--.--
36:26.7,-0.1,-0.1,52,0,0,0,0.1,0.2,0.12,0,0.2,37.1,0.44,0.44,0,0,00:00:04,1.1,0,--.--,225,14764186.3,0,0000:00:00,0,0,0,16.42,0.09,5,--.--,99,--.--,--:--:--,0,1.48,12:36:26,10-02-2022,--.--,--.--,--.--,--.--,--.--,--.--,--.--,--.--,--.--,--.--,--.--,--.--,0,0,0,0,0,0,0,0,0,0,0,0,0,FALSE,FALSE,FALSE,FALSE,FALSE,FALSE,FALSE,FALSE,FALSE,FALSE,FALSE,FALSE,--.--,--.--,--.--,--.--,--.--,--.--,--.--,--.--,11.2552581,75.8292785,43PEN 90517 44331,0.6,1,244.3,3,19,--.--,--.--,,--.--,--.--,--.--,0,0,--.--,--.--,0,0.8,0.8,-0.2,0.1,0,0,--.--,--.--,--.--,--.--,--.--,--.--,--.--,--.--,--.--,--.--,--.--,--.--,48.93,--.--,--.--,56,0,0.2,0.2,0.2,0,0,0,--.--,--.--,--.--
36:27.7,0,0,52,0,0,0,0.1,0.1,0.062,0,0.2,37.1,0.44,0.44,0,0,00:00:04,1.1,0,--.--,224,14764186,0,0000:00:00,0,0,0,16.42,0.08,5,--.--,99,--.--,--:--:--,0,1.31,12:36:27,10-02-2022,--.--,--.--,--.--,--.--,--.--,--.--,--.--,--.--,--.--,--.--,--.--,--.--,0,0,0,0,0,0,0,0,0,0,0,0,0,FALSE,FALSE,FALSE,FALSE,FALSE,FALSE,FALSE,FALSE,FALSE,FALSE,FALSE,FALSE,--.--,--.--,--.--,--.--,--.--,--.--,--.--,--.--,11.2552583,75.8292782,43PEN 90517 44331,0.6,1,244.3,3,19,--.--,--.--,,--.--,--.--,--.--,0,0,--.--,--.--,0,0.8,0.8,-0.2,0.1,0,0,--.--,--.--,--.--,--.--,--.--,--.--,--.--,--.--,--.--,--.--,--.--,--.--,48.94,--.--,--.--,56,0,0,0,0,0,0,0,--.--,--.--,--.--
36:28.7,0,0,52,0,0,0,0.1,0.1,0.2,0,0.2,37.1,0.44,0.44,0,0,00:00:04,1.2,0,--.--,225,14764186,0,0000:00:00,0,0,0,16.37,0.04,5,--.--,99,--.--,--:--:--,0,0.65,12:36:28,10-02-2022,--.--,--.--,--.--,--.--,--.--,--.--,--.--,--.--,--.--,--.--,--.--,--.--,0,0,0,0,0,0,0,0,0,0,0,0,0,FALSE,FALSE,FALSE,FALSE,FALSE,FALSE,FALSE,FALSE,FALSE,FALSE,FALSE,FALSE,--.--,--.--,--.--,--.--,--.--,--.--,--.--,--.--,11.2552595,75.8292784,43PEN 90517 44331,0.6,1,244.3,3,18,--.--,--.--,,--.--,--.--,--.--,0,0,--.--,--.--,0,0.8,0.8,-0.2,0.1,0,0,--.--,--.--,--.--,--.--,--.--,--.--,--.--,--.--,--.--,--.--,--.--,--.--,48.97,--.--,--.--,56,0,0.1,0.1,0,0,0,0,--.--,--.--,--.--
36:29.7,0,0.1,52,0,0,0,0.1,0.1,0.075,0,0.2,37.1,0.44,0.44,0,0,00:00:04,1.1,0,--.--,220,14764185.9,0,0000:00:00,0,0,0,16.43,0.09,5,--.--,99,--.--,--:--:--,0,1.48,12:36:29,10-02-2022,--.--,--.--,--.--,--.--,--.--,--.--,--.--,--.--,--.--,--.--,--.--,--.--,0,0,0,0,0,0,0,0,0,0,0,0,0,FALSE,FALSE,FALSE,FALSE,FALSE,FALSE,FALSE,FALSE,FALSE,FALSE,FALSE,FALSE,--.--,--.--,--.--,--.--,--.--,--.--,--.--,--.--,11.2552596,75.8292771,43PEN 90517 44331,0.6,1,244.3,3,19,--.--,--.--,,--.--,--.--,--.--,0,0,--.--,--.--,0,0.9,0.7,-0.2,0,0,0,--.--,--.--,--.--,--.--,--.--,--.--,--.--,--.--,--.--,--.--,--.--,--.--,49,--.--,--.--,56,0,0.2,0.2,0.2,0,0,0,--.--,--.--,--.--
36:30.7,0.4,0.1,52,0,0,0,0,0,0.046,0,0.2,37.2,0.45,0.44,0,0,00:00:04,1.2,0,--.--,219,14764185.7,0,0000:00:00,0,0,0,16.39,0.05,5,--.--,99,--.--,--:--:--,0,0.82,12:36:30,10-02-2022,--.--,--.--,--.--,--.--,--.--,--.--,--.--,--.--,--.--,--.--,--.--,--.--,0,0,0,0,0,0,0,0,0,0,0,0,0,FALSE,FALSE,FALSE,FALSE,FALSE,FALSE,FALSE,FALSE,FALSE,FALSE,FALSE,FALSE,--.--,--.--,--.--,--.--,--.--,--.--,--.--,--.--,11.2552596,75.8292773,43PEN 90517 44331,0.6,1,244.3,3,19,--.--,--.--,,--.--,--.--,--.--,0,0,--.--,--.--,0,0.9,0.7,-0.2,0,0,0,--.--,--.--,--.--,--.--,--.--,--.--,--.--,--.--,--.--,--.--,--.--,--.--,49.02,--.--,--.--,56,0,0.2,0.3,0.2,0,0,0,--.--,--.--,--.--
36:31.7,0.4,0,51,0,0,0,0,0,0.029,0,0.2,37.2,0.47,0.46,0,0,00:00:04,1.2,0,--.--,219,14764185.7,0,0000:00:00,0,0,0,16.45,0.11,5,--.--,99,--.--,--:--:--,0,1.81,12:36:31,10-02-2022,--.--,--.--,--.--,--.--,--.--,--.--,--.--,--.--,--.--,--.--,--.--,--.--,0,0,0,0,0,0,0,0,0,0,0,0,0,FALSE,FALSE,FALSE,FALSE,FALSE,FALSE,FALSE,FALSE,FALSE,FALSE,FALSE,FALSE,--.--,--.--,--.--,--.--,--.--,--.--,--.--,--.--,11.2552595,75.8292774,43PEN 90517 44331,0.6,1,244.3,3,19,--.--,--.--,,--.--,--.--,--.--,0,0,--.--,--.--,0,0.9,0.8,-0.2,0,0,0,--.--,--.--,--.--,--.--,--.--,--.--,--.--,--.--,--.--,--.--,--.--,--.--,49.03,--.--,--.--,56,0,0.1,0.1,0.1,0,0,0,--.--,--.--,--.--
36:32.7,0.1,0,52,0,0,0,0,0.1,0.028,0,0.2,37.2,0.49,0.49,0,0,00:00:04,1.2,0,--.--,221,14764185.8,0,0000:00:00,0,0,0,16.42,0.08,5,--.--,99,--.--,--:--:--,0,1.31,12:36:32,10-02-2022,--.--,--.--,--.--,--.--,--.--,--.--,--.--,--.--,--.--,--.--,--.--,--.--,0,0,0,0,0,0,0,0,0,0,0,0,0,FALSE,FALSE,FALSE,FALSE,FALSE,FALSE,FALSE,FALSE,FALSE,FALSE,FALSE,FALSE,--.--,--.--,--.--,--.--,--.--,--.--,--.--,--.--,11.2552586,75.8292777,43PEN 90517 44331,0.6,1,244.3,3,19,--.--,--.--,,--.--,--.--,--.--,0,0,--.--,--.--,0,0.9,0.8,-0.2,0,0,0,--.--,--.--,--.--,--.--,--.--,--.--,--.--,--.--,--.--,--.--,--.--,--.--,49.06,--.--,--.--,56,0,0,0,0,0,0,0,--.--,--.--,--.--
36:33.7,0.1,0,52,0,0,0,0,0,0.043,0,0.2,37.2,0.52,0.51,0,0,00:00:04,1.2,0,--.--,223,14764186,0,0000:00:00,0,0,0,16.4,0.06,5,--.--,99,--.--,--:--:--,0,0.98,12:36:33,10-02-2022,--.--,--.--,--.--,--.--,--.--,--.--,--.--,--.--,--.--,--.--,--.--,--.--,0,0,0,0,0,0,0,0,0,0,0,0,0,FALSE,FALSE,FALSE,FALSE,FALSE,FALSE,FALSE,FALSE,FALSE,FALSE,FALSE,FALSE,--.--,--.--,--.--,--.--,--.--,--.--,--.--,--.--,11.2552583,75.8292777,43PEN 90517 44331,0.7,1.1,244.3,3,18,--.--,--.--,,--.--,--.--,--.--,0,0,--.--,--.--,0,0.9,0.8,-0.2,0,0,0,--.--,--.--,--.--,--.--,--.--,--.--,--.--,--.--,--.--,--.--,--.--,--.--,49.09,--.--,--.--,56,0,0,0,0,0,0,0,--.--,--.--,--.--
36:34.7,0.1,0,52,0,0,0,0,0.1,0.14,0,0.2,37.2,0.5,0.51,0,0,00:00:04,1.2,0,--.--,224,14764186,0,0000:00:00,0,0,0,16.43,0.09,5,--.--,99,--.--,--:--:--,0,1.48,12:36:34,10-02-2022,--.--,--.--,--.--,--.--,--.--,--.--,--.--,--.--,--.--,--.--,--.--,--.--,0,0,0,0,0,0,0,0,0,0,0,0,0,FALSE,FALSE,FALSE,FALSE,FALSE,FALSE,FALSE,FALSE,FALSE,FALSE,FALSE,FALSE,--.--,--.--,--.--,--.--,--.--,--.--,--.--,--.--,11.2552586,75.8292782,43PEN 90517 44331,0.7,1.1,244.3,3,18,--.--,--.--,,--.--,--.--,--.--,0,0,--.--,--.--,0,0.8,0.8,-0.2,0,0,0,--.--,--.--,--.--,--.--,--.--,--.--,--.--,--.--,--.--,--.--,--.--,--.--,49.11,--.--,--.--,56,0,0,0,0,0,0,0,--.--,--.--,--.--
36:35.7,0.1,0,52,0,0,0,0,0,0.038,0,0.2,37.2,0.5,0.5,0,0,00:00:04,1.2,0,--.--,225,14764186.1,0,0000:00:00,0,0,0,16.44,0.11,5,--.--,99,--.--,--:--:--,0,1.81,12:36:35,10-02-2022,--.--,--.--,--.--,--.--,--.--,--.--,--.--,--.--,--.--,--.--,--.--,--.--,0,0,0,0,0,0,0,0,0,0,0,0,0,FALSE,FALSE,FALSE,FALSE,FALSE,FALSE,FALSE,FALSE,FALSE,FALSE,FALSE,FALSE,--.--,--.--,--.--,--.--,--.--,--.--,--.--,--.--,11.2552587,75.8292784,43PEN 90517 44331,0.6,1,244.3,3,19,--.--,--.--,,--.--,--.--,--.--,0,0,--.--,--.--,0,0.8,0.8,-0.2,0,0,0,--.--,--.--,--.--,--.--,--.--,--.--,--.--,--.--,--.--,--.--,--.--,--.--,49.12,--.--,--.--,56,0,0,0,0,0,0,0,--.--,--.--,--.--
36:36.7,0.1,0,52,0,0,0,0,0,0.024,0,0.2,37.2,0.52,0.52,0,0,00:00:04,1.2,0,--.--,226,14764186.4,0,0000:00:00,0,0,0,16.41,0.07,5,--.--,99,--.--,--:--:--,0,1.15,12:36:36,10-02-2022,--.--,--.--,--.--,--.--,--.--,--.--,--.--,--.--,--.--,--.--,--.--,--.--,0,0,0,0,0,0,0,0,0,0,0,0,0,FALSE,FALSE,FALSE,FALSE,FALSE,FALSE,FALSE,FALSE,FALSE,FALSE,FALSE,FALSE,--.--,--.--,--.--,--.--,--.--,--.--,--.--,--.--,11.2552583,75.8292783,43PEN 90517 44331,0.6,1,244.3,3,19,--.--,--.--,,--.--,--.--,--.--,0,0,--.--,--.--,0,0.8,0.9,-0.2,0,0,0,--.--,--.--,--.--,--.--,--.--,--.--,--.--,--.--,--.--,--.--,--.--,--.--,49.15,--.--,--.--,56,0,0,0,0,0,0,0,--.--,--.--,--.--
36:37.7,0.1,0,52,0,0,0,0,0,0.033,0,0.2,37.2,0.53,0.53,0,0,00:00:04,1.2,0,--.--,228,14764186.4,0,0000:00:00,0,0,0,16.42,0.09,5,--.--,99,--.--,--:--:--,0,1.48,12:36:37,10-02-2022,--.--,--.--,--.--,--.--,--.--,--.--,--.--,--.--,--.--,--.--,--.--,--.--,0,0,0,0,0,0,0,0,0,0,0,0,0,FALSE,FALSE,FALSE,FALSE,FALSE,FALSE,FALSE,FALSE,FALSE,FALSE,FALSE,FALSE,--.--,--.--,--.--,--.--,--.--,--.--,--.--,--.--,11.2552585,75.8292787,43PEN 90517 44331,0.6,1,244.3,3,19,--.--,--.--,,--.--,--.--,--.--,0,0,--.--,--.--,0,0.8,0.9,-0.2,0,0,0,--.--,--.--,--.--,--.--,--.--,--.--,--.--,--.--,--.--,--.--,--.--,--.--,49.17,--.--,--.--,56,0,0,0,0,0,0,0,--.--,--.--,--.--
36:38.7,0.1,0,52,0,0,0,0,0,0.048,0,0.2,37.2,0.53,0.53,0,0,00:00:04,1.2,0,--.--,229,14764186.4,0,0000:00:00,0,0,0,16.43,0.09,6,--.--,99,--.--,--:--:--,0,1.48,12:36:38,10-02-2022,--.--,--.--,--.--,--.--,--.--,--.--,--.--,--.--,--.--,--.--,--.--,--.--,0,0,0,0,0,0,0,0,0,0,0,0,0,FALSE,FALSE,FALSE,FALSE,FALSE,FALSE,FALSE,FALSE,FALSE,FALSE,FALSE,FALSE,--.--,--.--,--.--,--.--,--.--,--.--,--.--,--.--,11.2552586,75.829279,43PEN 90517 44331,0.6,1,244.3,3,19,--.--,--.--,,--.--,--.--,--.--,0,0,--.--,--.--,0,0.8,0.9,-0.2,0,0,0,--.--,--.--,--.--,--.--,--.--,--.--,--.--,--.--,--.--,--.--,--.--,--.--,49.18,--.--,--.--,56,0,0,0,0,0,0,0,--.--,--.--,--.--
36:39.7,0.1,-0.1,52,0,0,0,0,0,0.01,0,0.3,37.3,0.57,0.57,0,0,00:00:04,1.3,0,--.--,230,14764186.7,0,0000:00:00,0,0,0,16.44,0.1,6,--.--,99,--.--,--:--:--,0,1.64,12:36:39,10-02-2022,--.--,--.--,--.--,--.--,--.--,--.--,--.--,--.--,--.--,--.--,--.--,--.--,0,0,0,0,0,0,0,0,0,0,0,0,0,FALSE,FALSE,FALSE,FALSE,FALSE,FALSE,FALSE,FALSE,FALSE,FALSE,FALSE,FALSE,--.--,--.--,--.--,--.--,--.--,--.--,--.--,--.--,11.2552589,75.8292788,43PEN 90517 44331,0.6,1,244.3,3,19,--.--,--.--,,--.--,--.--,--.--,0,0,--.--,--.--,0,0.8,1,-0.3,0,0,0,--.--,--.--,--.--,--.--,--.--,--.--,--.--,--.--,--.--,--.--,--.--,--.--,49.2,--.--,--.--,56,0,0,0,0,0,0,0,--.--,--.--,--.--
36:40.7,0.1,-0.1,52,0,0,0,0,0,0.086,0,0.3,37.3,0.57,0.58,0,0,00:00:04,1.3,0,--.--,228,14764186.6,0,0000:00:00,0,0,0,16.41,0.08,6,--.--,99,--.--,--:--:--,0,1.31,12:36:40,10-02-2022,--.--,--.--,--.--,--.--,--.--,--.--,--.--,--.--,--.--,--.--,--.--,--.--,0,0,0,0,0,0,0,0,0,0,0,0,0,FALSE,FALSE,FALSE,FALSE,FALSE,FALSE,FALSE,FALSE,FALSE,FALSE,FALSE,FALSE,--.--,--.--,--.--,--.--,--.--,--.--,--.--,--.--,11.2552594,75.8292785,43PEN 90517 44331,0.6,1,244.3,3,19,--.--,--.--,,--.--,--.--,--.--,0,0,--.--,--.--,0,0.8,1,-0.3,0,0,0,--.--,--.--,--.--,--.--,--.--,--.--,--.--,--.--,--.--,--.--,--.--,--.--,49.23,--.--,--.--,56,0,0,0,0,0,0,0,--.--,--.--,--.--
36:41.7,0.1,-0.1,52,0,0,0,0,0,0.041,0,0.3,37.3,0.54,0.54,0,0,00:00:04,1.3,0,--.--,227,14764186.6,0,0000:00:00,0,0,0,16.37,0.04,6,--.--,99,--.--,--:--:--,0,0.65,12:36:41,10-02-2022,--.--,--.--,--.--,--.--,--.--,--.--,--.--,--.--,--.--,--.--,--.--,--.--,0,0,0,0,0,0,0,0,0,0,0,0,0,FALSE,FALSE,FALSE,FALSE,FALSE,FALSE,FALSE,FALSE,FALSE,FALSE,FALSE,FALSE,--.--,--.--,--.--,--.--,--.--,--.--,--.--,--.--,11.2552597,75.8292783,43PEN 90517 44331,0.6,1,244.3,3,19,--.--,--.--,,--.--,--.--,--.--,0,0,--.--,--.--,0,0.9,0.9,-0.3,0,0,0,--.--,--.--,--.--,--.--,--.--,--.--,--.--,--.--,--.--,--.--,--.--,--.--,49.25,--.--,--.--,56,0,0,0,0,0,0,0,--.--,--.--,--.--
36:42.7,0.1,-0.1,52,0,0,0,0,0,0.043,0,0.3,37.3,0.55,0.54,0,0,00:00:04,1.3,0,--.--,225,14764186.8,0,0000:00:00,0,0,0,16.42,0.09,6,--.--,99,--.--,--:--:--,0,1.48,12:36:42,10-02-2022,--.--,--.--,--.--,--.--,--.--,--.--,--.--,--.--,--.--,--.--,--.--,--.--,0,0,0,0,0,0,0,0,0,0,0,0,0,FALSE,FALSE,FALSE,FALSE,FALSE,FALSE,FALSE,FALSE,FALSE,FALSE,FALSE,FALSE,--.--,--.--,--.--,--.--,--.--,--.--,--.--,--.--,11.2552599,75.8292781,43PEN 90517 44331,0.6,1,244.3,3,19,--.--,--.--,,--.--,--.--,--.--,0,0,--.--,--.--,0,0.9,0.9,-0.3,0,0,0,--.--,--.--,--.--,--.--,--.--,--.--,--.--,--.--,--.--,--.--,--.--,--.--,49.27,--.--,--.--,56,0,0,0,0,0,0,0,--.--,--.--,--.--
36:43.7,0.1,0,52,0,0,0,0,0,0.026,0,0.3,37.3,0.55,0.55,0,0,00:00:04,1.3,0,--.--,224,14764186.8,0,0000:00:00,0,0,0,16.41,0.07,6,--.--,99,--.--,--:--:--,0,1.15,12:36:43,10-02-2022,--.--,--.--,--.--,--.--,--.--,--.--,--.--,--.--,--.--,--.--,--.--,--.--,0,0,0,0,0,0,0,0,0,0,0,0,0,FALSE,FALSE,FALSE,FALSE,FALSE,FALSE,FALSE,FALSE,FALSE,FALSE,FALSE,FALSE,--.--,--.--,--.--,--.--,--.--,--.--,--.--,--.--,11.2552599,75.8292781,43PEN 90517 44331,0.6,1,244.3,3,19,--.--,--.--,,--.--,--.--,--.--,0,0,--.--,--.--,0,0.9,0.9,-0.3,0,0,0,--.--,--.--,--.--,--.--,--.--,--.--,--.--,--.--,--.--,--.--,--.--,--.--,49.29,--.--,--.--,56,0,0,0,0,0,0,0,--.--,--.--,--.--
36:44.7,0.1,0,52,0,0,0,0,0.2,0.06,0,0.3,37.3,0.53,0.54,0,0,00:00:04,1.3,0,--.--,223,14764186.7,0,0000:00:00,0,0,0,16.39,0.06,6,--.--,99,--.--,--:--:--,0,0.98,12:36:44,10-02-2022,--.--,--.--,--.--,--.--,--.--,--.--,--.--,--.--,--.--,--.--,--.--,--.--,0,0,0,0,0,0,0,0,0,0,0,0,0,FALSE,FALSE,FALSE,FALSE,FALSE,FALSE,FALSE,FALSE,FALSE,FALSE,FALSE,FALSE,--.--,--.--,--.--,--.--,--.--,--.--,--.--,--.--,11.2552601,75.8292781,43PEN 90517 44331,0.6,1,244.3,3,19,--.--,--.--,,--.--,--.--,--.--,0,0,--.--,--.--,0,0.9,0.9,-0.3,0,0,0,--.--,--.--,--.--,--.--,--.--,--.--,--.--,--.--,--.--,--.--,--.--,--.--,49.29,--.--,--.--,56,0,0,0,0,0,0,0,--.--,--.--,--.--
36:45.7,0.1,-0.1,52,0,0,0,0,0.1,0.029,0,0.2,37.2,0.52,0.53,0,0,00:00:04,1.3,0,--.--,221,14764186.4,0,0000:00:00,0,0,0,16.41,0.07,6,--.--,99,--.--,--:--:--,0,1.15,12:36:45,10-02-2022,--.--,--.--,--.--,--.--,--.--,--.--,--.--,--.--,--.--,--.--,--.--,--.--,0,0,0,0,0,0,0,0,0,0,0,0,0,FALSE,FALSE,FALSE,FALSE,FALSE,FALSE,FALSE,FALSE,FALSE,FALSE,FALSE,FALSE,--.--,--.--,--.--,--.--,--.--,--.--,--.--,--.--,11.2552605,75.829278,43PEN 90517 44331,0.6,1,244.3,3,19,--.--,--.--,,--.--,--.--,--.--,0,0,--.--,--.--,0,1,0.9,-0.2,0,0,0,--.--,--.--,--.--,--.--,--.--,--.--,--.--,--.--,--.--,--.--,--.--,--.--,49.32,--.--,--.--,56,0,0,0,0,0,0,0,--.--,--.--,--.--
36:46.7,0.1,0,52,0,0,0,0,0,0.027,0,0.2,37.2,0.51,0.51,0,0,00:00:04,1.3,0,--.--,220,14764186.4,0,0000:00:00,0,0,0,16.36,0.04,6,--.--,99,--.--,--:--:--,0,0.65,12:36:46,10-02-2022,--.--,--.--,--.--,--.--,--.--,--.--,--.--,--.--,--.--,--.--,--.--,--.--,0,0,0,0,0,0,0,0,0,0,0,0,0,FALSE,FALSE,FALSE,FALSE,FALSE,FALSE,FALSE,FALSE,FALSE,FALSE,FALSE,FALSE,--.--,--.--,--.--,--.--,--.--,--.--,--.--,--.--,11.2552605,75.8292779,43PEN 90517 44331,0.6,1,244.3,3,19,--.--,--.--,,--.--,--.--,--.--,0,0,--.--,--.--,0,1,0.9,-0.2,0,0,0,--.--,--.--,--.--,--.--,--.--,--.--,--.--,--.--,--.--,--.--,--.--,--.--,49.33,--.--,--.--,56,0,0,0,0,0,0,0,--.--,--.--,--.--
36:47.7,0.1,-0.1,52,0,0,0,0,0,0.034,0,0.2,37.2,0.49,0.49,0,0,00:00:04,1.3,0,--.--,219,14764186.4,0,0000:00:00,0,0,0,16.39,0.05,6,--.--,99,--.--,--:--:--,0,0.82,12:36:47,10-02-2022,--.--,--.--,--.--,--.--,--.--,--.--,--.--,--.--,--.--,--.--,--.--,--.--,0,0,0,0,0,0,0,0,0,0,0,0,0,FALSE,FALSE,FALSE,FALSE,FALSE,FALSE,FALSE,FALSE,FALSE,FALSE,FALSE,FALSE,--.--,--.--,--.--,--.--,--.--,--.--,--.--,--.--,11.2552605,75.8292777,43PEN 90517 44331,0.6,1,244.3,3,18,--.--,--.--,,--.--,--.--,--.--,0,0,--.--,--.--,0,1,0.8,-0.2,0,0,0,--.--,--.--,--.--,--.--,--.--,--.--,--.--,--.--,--.--,--.--,--.--,--.--,49.36,--.--,--.--,56,0,0,0,0,0,0,0,--.--,--.--,--.--
36:48.7,0.1,0,52,0,0,0,0,0.1,0.044,0,0.2,37.2,0.5,0.5,0,0,00:00:04,1.3,0,--.--,218,14764186.4,0,0000:00:00,0,0,0,16.4,0.07,6,--.--,99,--.--,--:--:--,0,1.15,12:36:48,10-02-2022,--.--,--.--,--.--,--.--,--.--,--.--,--.--,--.--,--.--,--.--,--.--,--.--,0,0,0,0,0,0,0,0,0,0,0,0,0,FALSE,FALSE,FALSE,FALSE,FALSE,FALSE,FALSE,FALSE,FALSE,FALSE,FALSE,FALSE,--.--,--.--,--.--,--.--,--.--,--.--,--.--,--.--,11.2552605,75.8292774,43PEN 90517 44331,0.6,1,244.3,3,18,--.--,--.--,,--.--,--.--,--.--,0,0,--.--,--.--,0,1,0.8,-0.2,0,0,0,--.--,--.--,--.--,--.--,--.--,--.--,--.--,--.--,--.--,--.--,--.--,--.--,49.38,--.--,--.--,56,0,0,0,0,0,0,0,--.--,--.--,--.--
36:49.7,0.1,-0.1,52,0,0,0,0,0.1,0.02,0,0.2,37.2,0.52,0.52,0,0,00:00:04,1.3,0,--.--,218,14764186.1,0,0000:00:00,0,0,0,16.35,0.02,6,--.--,99,--.--,--:--:--,0,0.33,12:36:49,10-02-2022,--.--,--.--,--.--,--.--,--.--,--.--,--.--,--.--,--.--,--.--,--.--,--.--,0,0,0,0,0,0,0,0,0,0,0,0,0,FALSE,FALSE,FALSE,FALSE,FALSE,FALSE,FALSE,FALSE,FALSE,FALSE,FALSE,FALSE,--.--,--.--,--.--,--.--,--.--,--.--,--.--,--.--,11.2552606,75.8292772,43PEN 90517 44331,0.6,1,244.3,3,18,--.--,--.--,,--.--,--.--,--.--,0,0,--.--,--.--,0,1.1,0.8,-0.2,0,0,0,--.--,--.--,--.--,--.--,--.--,--.--,--.--,--.--,--.--,--.--,--.--,--.--,49.39,--.--,--.--,56,0,0,0,0.1,0,0,0,--.--,--.--,--.--
36:50.7,0.2,-0.1,52,0,0,0,0,0.1,0.052,0,0.2,37.2,0.53,0.53,0,0,00:00:04,1.3,0,--.--,219,14764186.1,0,0000:00:00,0,0,0,16.33,0.01,6,--.--,99,--.--,--:--:--,0,0.16,12:36:50,10-02-2022,--.--,--.--,--.--,--.--,--.--,--.--,--.--,--.--,--.--,--.--,--.--,--.--,0,0,0,0,0,0,0,0,0,0,0,0,0,FALSE,FALSE,FALSE,FALSE,FALSE,FALSE,FALSE,FALSE,FALSE,FALSE,FALSE,FALSE,--.--,--.--,--.--,--.--,--.--,--.--,--.--,--.--,11.2552603,75.8292774,43PEN 90517 44331,0.6,1,244.3,3,19,--.--,--.--,,--.--,--.--,--.--,0,0,--.--,--.--,0,1,0.8,-0.2,0,0,0,--.--,--.--,--.--,--.--,--.--,--.--,--.--,--.--,--.--,--.--,--.--,--.--,49.41,--.--,--.--,56,0,0,0,0,0,0,0,--.--,--.--,--.--
36:51.7,0.2,-0.1,52,0,0,0,0,0,0.017,0,0.2,37.2,0.51,0.51,0,0,00:00:04,1.3,0,--.--,220,14764186.1,0,0000:00:00,0,0,0,16.41,0.07,6,--.--,99,--.--,--:--:--,0,1.15,12:36:51,10-02-2022,--.--,--.--,--.--,--.--,--.--,--.--,--.--,--.--,--.--,--.--,--.--,--.--,0,0,0,0,0,0,0,0,0,0,0,0,0,FALSE,FALSE,FALSE,FALSE,FALSE,FALSE,FALSE,FALSE,FALSE,FALSE,FALSE,FALSE,--.--,--.--,--.--,--.--,--.--,--.--,--.--,--.--,11.2552605,75.8292778,43PEN 90517 44331,0.6,1,244.3,3,18,--.--,--.--,,--.--,--.--,--.--,0,0,--.--,--.--,0,1,0.9,-0.2,0,0,0,--.--,--.--,--.--,--.--,--.--,--.--,--.--,--.--,--.--,--.--,--.--,--.--,49.44,--.--,--.--,56,0,0,0,0,0,0,0,--.--,--.--,--.--
36:52.7,0.1,-0.1,52,0,0,0,0,0.1,0.008,0,0,37.2,0.5,0.5,0,0,00:00:04,0,0,--.--,--.--,14764186.3,0,0000:00:00,0,0,0,16.39,0.04,6,--.--,99,--.--,--:--:--,0,0.66,12:36:52,10-02-2022,--.--,--.--,--.--,--.--,--.--,--.--,--.--,--.--,--.--,--.--,--.--,--.--,0,0,0,0,0,0,0,0,0,0,0,0,0,FALSE,FALSE,FALSE,FALSE,FALSE,FALSE,FALSE,FALSE,FALSE,FALSE,FALSE,FALSE,--.--,--.--,--.--,--.--,--.--,--.--,--.--,--.--,11.2552614,75.8292773,43PEN 90517 44331,0.6,1,244.3,3,19,--.--,--.--,,--.--,--.--,--.--,0,0,--.--,--.--,0,0,0,0,0,0,0,--.--,--.--,--.--,--.--,--.--,--.--,--.--,--.--,--.--,--.--,--.--,--.--,49.46,--.--,--.--,56,0,0,0,0,0,0,0,--.--,--.--,--.--
36:53.7,0.1,-0.1,52,0,0,0,0,0,0.032,0,0,37.2,0.52,0.52,0,0,00:00:00,0.1,0,--.--,--.--,14764186.3,0,0000:00:00,0,0,0,16.32,0.02,6,--.--,99,--.--,--:--:--,0,0.33,12:36:53,10-02-2022,--.--,--.--,--.--,--.--,--.--,--.--,--.--,--.--,--.--,--.--,--.--,--.--,0,0,0,0,0,0,0,0,0,0,0,0,0,FALSE,FALSE,FALSE,FALSE,FALSE,FALSE,FALSE,FALSE,FALSE,FALSE,FALSE,FALSE,--.--,--.--,--.--,--.--,--.--,--.--,--.--,--.--,11.2552618,75.8292772,43PEN 90517 44331,0.6,1,244.3,3,19,--.--,--.--,,--.--,--.--,--.--,0,0,--.--,--.--,0,0.1,0,0,0,0,0,--.--,--.--,--.--,--.--,--.--,--.--,--.--,--.--,--.--,--.--,--.--,--.--,49.47,--.--,--.--,56,0,0,0,0,0,0,0,--.--,--.--,--.--
36:54.7,0.1,0,52,0,0,0,0,0,0.036,0,0,37.2,0.5,0.5,0,0,00:00:00,0.2,0,--.--,--.--,14764186.2,0,0000:00:00,0,0,0,16.31,0.52,6,--.--,99,--.--,--:--:--,0,8.48,12:36:54,10-02-2022,--.--,--.--,--.--,--.--,--.--,--.--,--.--,--.--,--.--,--.--,--.--,--.--,0,0,0,0,0,0,0,0,0,0,0,0,0,FALSE,FALSE,FALSE,FALSE,FALSE,FALSE,FALSE,FALSE,FALSE,FALSE,FALSE,FALSE,--.--,--.--,--.--,--.--,--.--,--.--,--.--,--.--,11.2552628,75.8292769,43PEN 90517 44332,0.6,1,244.3,3,19,--.--,--.--,,--.--,--.--,--.--,0,0,--.--,--.--,0,0.2,-0.1,0,0,0,0,--.--,--.--,--.--,--.--,--.--,--.--,--.--,--.--,--.--,--.--,--.--,--.--,49.49,--.--,--.--,56,0,1.3,1.1,2.2,0,0,0,--.--,--.--,--.--
36:55.7,0.1,-0.1,52,0,0,0,0.1,0,0.023,0,0,37.2,0.49,0.49,0,0,00:00:01,0.3,0,--.--,--.--,14764185.9,0,0000:00:00,0,0,0,16.38,0.12,6,--.--,99,--.--,--:--:--,0,1.97,12:36:55,10-02-2022,--.--,--.--,--.--,--.--,--.--,--.--,--.--,--.--,--.--,--.--,--.--,--.--,0,0,0,0,0,0,0,0,0,0,0,0,0,FALSE,FALSE,FALSE,FALSE,FALSE,FALSE,FALSE,FALSE,FALSE,FALSE,FALSE,FALSE,--.--,--.--,--.--,--.--,--.--,--.--,--.--,--.--,11.2552632,75.829277,43PEN 90517 44332,0.6,1,244.3,3,19,--.--,--.--,,--.--,--.--,--.--,0,0,--.--,--.--,0,0.2,-0.1,0,0,0,0,--.--,--.--,--.--,--.--,--.--,--.--,--.--,--.--,--.--,--.--,--.--,--.--,49.51,--.--,--.--,56,0,4.8,2.4,4.6,0,0,0,--.--,--.--,--.--
36:56.7,1.4,1.3,52,0,0,0,0,0.1,0.01,-0.1,0,37.2,0.49,0.49,0,0,00:00:02,0.3,0,--.--,--.--,14764185.9,0,0000:00:00,0,0,0,16.19,2.99,6,--.--,99,--.--,--:--:--,0,48.4,12:36:56,10-02-2022,--.--,--.--,--.--,--.--,--.--,--.--,--.--,--.--,--.--,--.--,--.--,--.--,0,0,0,0,0,0,0,0,0,0,0,0,0,FALSE,FALSE,FALSE,FALSE,FALSE,FALSE,FALSE,FALSE,FALSE,FALSE,FALSE,FALSE,--.--,--.--,--.--,--.--,--.--,--.--,--.--,--.--,11.2552633,75.829277,43PEN 90517 44332,0.6,1,244.3,3,19,--.--,--.--,,--.--,--.--,--.--,0,0,--.--,--.--,0,0.3,-0.1,0,-0.1,0,0,--.--,--.--,--.--,--.--,--.--,--.--,--.--,--.--,--.--,--.--,--.--,--.--,49.52,--.--,--.--,56,0,5.2,7.5,18,0,0,0,--.--,--.--,--.--
36:57.7,1.3,1.5,52,0,0,0,0,0,0.031,-0.1,0,37.2,0.49,0.5,0,0,00:00:03,0.3,0,--.--,--.--,14764185.9,0,0000:00:00,0,0,0,16.1,2.65,7,--.--,99,--.--,--:--:--,0,42.66,12:36:57,10-02-2022,--.--,--.--,--.--,--.--,--.--,--.--,--.--,--.--,--.--,--.--,--.--,--.--,0,0,0,0,0,0,0,0,0,0,0,0,0,FALSE,FALSE,FALSE,FALSE,FALSE,FALSE,FALSE,FALSE,FALSE,FALSE,FALSE,FALSE,--.--,--.--,--.--,--.--,--.--,--.--,--.--,--.--,11.2552634,75.829277,43PEN 90517 44332,0.6,1,244.3,3,19,--.--,--.--,,--.--,--.--,--.--,0,0,--.--,--.--,0,0.3,-0.1,0,0,0,0,--.--,--.--,--.--,--.--,--.--,--.--,--.--,--.--,--.--,--.--,--.--,--.--,49.53,--.--,--.--,56,0,3.7,12.8,19,0,0,0,--.--,--.--,--.--
36:58.7,1.2,1.5,52,0,0,0,0,0,0.004,-0.1,0,37.2,0.47,0.48,0,0,00:00:04,0.3,0,--.--,--.--,14764185.6,0,0000:00:00,0,0,0,16.08,2.34,7,--.--,99,--.--,--:--:--,0,37.64,12:36:58,10-02-2022,--.--,--.--,--.--,--.--,--.--,--.--,--.--,--.--,--.--,--.--,--.--,--.--,0,0,0,0,0,0,0,0,0,0,0,0,0,FALSE,FALSE,FALSE,FALSE,FALSE,FALSE,FALSE,FALSE,FALSE,FALSE,FALSE,FALSE,--.--,--.--,--.--,--.--,--.--,--.--,--.--,--.--,11.2552637,75.8292769,43PEN 90517 44332,0.6,1,244.3,3,19,--.--,--.--,,--.--,--.--,--.--,0,0,--.--,--.--,0,0.3,-0.1,0,-0.1,0,0,--.--,--.--,--.--,--.--,--.--,--.--,--.--,--.--,--.--,--.--,--.--,--.--,49.54,--.--,--.--,56,0,3.9,13.2,16.5,0,0,0,--.--,--.--,--.--
36:59.7,0.5,2.7,53,0,0,0,0,0,0.02,-0.1,-0.1,37.1,0.43,0.381,0,0,00:00:05,0.3,0,--.--,--.--,14764185.6,18,0000:00:00,0,0,0,15.79,12.99,9,--.--,99,--.--,--:--:--,0,205.13,12:36:59,10-02-2022,--.--,--.--,--.--,--.--,--.--,--.--,--.--,--.--,--.--,--.--,--.--,--.--,0,0,0,0,0,0,0,0,0,0,0,0,0,FALSE,FALSE,FALSE,FALSE,FALSE,FALSE,FALSE,FALSE,FALSE,FALSE,FALSE,FALSE,--.--,--.--,--.--,--.--,--.--,--.--,--.--,--.--,11.2552641,75.8292769,43PEN 90517 44332,0.6,1,244.3,3,19,--.--,--.--,,--.--,--.--,--.--,0,0,--.--,--.--,0,0.3,-0.1,0.1,0,0,0.1,--.--,--.--,--.--,--.--,--.--,--.--,--.--,--.--,--.--,--.--,--.--,--.--,49.56,--.--,--.--,56,0,11.6,9.8,48.9,0,0,0,--.--,--.--,--.--
37:00.7,-0.3,0.8,56,0,0,0,0.2,0.1,0.05,0,0.1,37.3,0.6,0.547,0,0,00:00:06,0.4,0,--.--,--.--,14764185.5,18,0000:00:00,0,0,0,15.68,14.56,12,--.--,99,--.--,--:--:--,0,228.23,12:37:00,10-02-2022,--.--,--.--,--.--,--.--,--.--,--.--,--.--,--.--,--.--,--.--,--.--,--.--,0,0,0,0,0,0,0,0,0,0,0,0,0,FALSE,FALSE,FALSE,FALSE,FALSE,FALSE,FALSE,FALSE,FALSE,FALSE,FALSE,FALSE,--.--,--.--,--.--,--.--,--.--,--.--,--.--,--.--,11.2552643,75.8292766,43PEN 90517 44332,0.6,1,244.3,3,19,--.--,--.--,,--.--,--.--,--.--,0,0,--.--,--.--,0,0.3,-0.2,-0.1,-0.1,-0.2,-0.2,--.--,--.--,--.--,--.--,--.--,--.--,--.--,--.--,--.--,--.--,--.--,--.--,49.57,--.--,--.--,56,0,14.3,9.1,53.3,3,4,0,--.--,--.--,--.--
37:01.7,0,0.2,53,0,0,0,0.2,0.1,0.104,0.2,0.3,37.5,0.82,0.816,0,0,00:00:07,0.6,0,--.--,--.--,14764185.7,18,0000:00:00,0,0,0,15.76,12.83,16,--.--,99,--.--,--:--:--,0,202.15,12:37:01,10-02-2022,--.--,--.--,--.--,--.--,--.--,--.--,--.--,--.--,--.--,--.--,--.--,--.--,0,0,0,0,0,0,0,0,0,0,0,0,0,FALSE,FALSE,FALSE,FALSE,FALSE,FALSE,FALSE,FALSE,FALSE,FALSE,FALSE,FALSE,--.--,--.--,--.--,--.--,--.--,--.--,--.--,--.--,11.2552644,75.8292755,43PEN 90517 44332,0.6,1,244.3,3,19,--.--,--.--,,--.--,--.--,--.--,0,0,--.--,--.--,0,0.4,-0.4,-0.3,0.1,-0.3,-0.3,--.--,--.--,--.--,--.--,--.--,--.--,--.--,--.--,--.--,--.--,--.--,--.--,49.58,--.--,--.--,56,0,11.6,8.7,43.7,8,10,0,--.--,--.--,--.--
37:02.7,0,0.1,52,0,0,0,0.4,0.3,0.299,0.1,0.5,37.7,1.04,1.04,0,0,00:00:08,0.8,0,--.--,--.--,14764185.4,18,0000:00:00,0,0,0,15.68,14.07,20,--.--,99,--.--,--:--:--,0,220.56,12:37:02,10-02-2022,--.--,--.--,--.--,--.--,--.--,--.--,--.--,--.--,--.--,--.--,--.--,--.--,0,0,0,0,0,0,0,0,0,0,0,0,0,FALSE,FALSE,FALSE,FALSE,FALSE,FALSE,FALSE,FALSE,FALSE,FALSE,FALSE,FALSE,--.--,--.--,--.--,--.--,--.--,--.--,--.--,--.--,11.2552663,75.8292752,43PEN 90517 44332,0.6,1,355.7,3,19,--.--,--.--,,--.--,--.--,--.--,0,0,--.--,--.--,0,0.6,-0.4,-0.5,0.3,-0.1,0,--.--,--.--,--.--,--.--,--.--,--.--,--.--,--.--,--.--,--.--,--.--,--.--,49.6,--.--,--.--,56,0,15.9,17.9,55.2,12,18,0,--.--,--.--,--.--
37:03.7,1.1,0.1,54,0,0,0,0.4,0.4,0.352,0.3,0.6,37.8,1.23,1.236,0,0,00:00:09,0.9,0,--.--,--.--,14764185.3,18,0000:00:00,0,0,0,15.67,14.07,23,--.--,99,--.--,--:--:--,0,220.52,12:37:03,10-02-2022,--.--,--.--,--.--,--.--,--.--,--.--,--.--,--.--,--.--,--.--,--.--,--.--,0,0,0,0,0,0,0,0,0,0,0,0,0,FALSE,FALSE,FALSE,FALSE,FALSE,FALSE,FALSE,FALSE,FALSE,FALSE,FALSE,FALSE,--.--,--.--,--.--,--.--,--.--,--.--,--.--,--.--,11.2552682,75.8292755,43PEN 90517 44332,0.6,1,7.5,3,19,--.--,--.--,,--.--,--.--,--.--,0,0,--.--,--.--,0,1,-0.4,-0.7,0.4,-0.1,-0.2,--.--,--.--,--.--,--.--,--.--,--.--,--.--,--.--,--.--,--.--,--.--,--.--,49.61,--.--,--.--,56,0,17.7,14,65.4,21,28,0,--.--,--.--,--.--
37:04.7,1.5,-0.2,55,0,0,0,0.2,0.3,0.295,0.2,0.8,38,1.39,1.444,0,0,00:00:10,1.3,0,--.--,173,14764185,17,0000:00:00,0,0,0,15.71,13.54,27,--.--,99,--.--,--:--:--,0,212.7,12:37:04,10-02-2022,--.--,--.--,--.--,--.--,--.--,--.--,--.--,--.--,--.--,--.--,--.--,--.--,0,0,0,0,0,0,0,0,0,0,0,0,0,FALSE,FALSE,FALSE,FALSE,FALSE,FALSE,FALSE,FALSE,FALSE,FALSE,FALSE,FALSE,--.--,--.--,--.--,--.--,--.--,--.--,--.--,--.--,11.2552715,75.8292767,43PEN 90517 44333,0.6,1,25.5,3,19,--.--,--.--,,--.--,--.--,--.--,0,0,--.--,--.--,0,1.3,-0.2,-0.8,0.2,0.1,0,--.--,--.--,--.--,--.--,--.--,--.--,--.--,--.--,--.--,--.--,--.--,--.--,49.61,--.--,--.--,56,0,16.3,10.8,58.4,23,31,0,--.--,--.--,--.--
37:05.7,-0.5,0.7,52,0,0,0,0.2,0.2,0.265,0.1,1.1,38.3,1.6,1.652,0,0,00:00:11,1.4,0,--.--,188,14764185,17,0000:00:00,0,0,0,15.66,13.4,32,--.--,99,--.--,--:--:--,0,209.84,12:37:05,10-02-2022,--.--,--.--,--.--,--.--,--.--,--.--,--.--,--.--,--.--,--.--,--.--,--.--,0,0,0,0,0,0,0,0,0,0,0,0,0,FALSE,FALSE,FALSE,FALSE,FALSE,FALSE,FALSE,FALSE,FALSE,FALSE,FALSE,FALSE,--.--,--.--,--.--,--.--,--.--,--.--,--.--,--.--,11.2552733,75.8292794,43PEN 90517 44333,0.6,1,37.2,3,19,--.--,--.--,,--.--,--.--,--.--,0,0,--.--,--.--,0,1.4,0.2,-1.1,0,0.2,-0.3,--.--,--.--,--.--,--.--,--.--,--.--,--.--,--.--,--.--,--.--,--.--,--.--,49.63,--.--,--.--,56,0,17,11.7,61.6,23,32,0,--.--,--.--,--.--
37:06.7,0.9,-0.7,54,0,0,0,0.3,0.2,0.174,0,1.2,38.5,1.77,1.785,0,0,00:00:12,1.5,0,--.--,194,14764185,17,0000:00:00,0,0,0,15.68,12.48,34,--.--,98,--.--,--:--:--,0,195.69,12:37:06,10-02-2022,--.--,--.--,--.--,--.--,--.--,--.--,--.--,--.--,--.--,--.--,--.--,--.--,0,0,0,0,0,0,0,0,0,0,0,0,0,FALSE,FALSE,FALSE,FALSE,FALSE,FALSE,FALSE,FALSE,FALSE,FALSE,FALSE,FALSE,--.--,--.--,--.--,--.--,--.--,--.--,--.--,--.--,11.2552734,75.8292807,43PEN 90517 44333,0.6,1,37.2,3,19,--.--,--.--,,--.--,--.--,--.--,0,0,--.--,--.--,0,1.4,0.4,-1.2,0,0.2,-0.1,--.--,--.--,--.--,--.--,--.--,--.--,--.--,--.--,--.--,--.--,--.--,--.--,49.63,--.--,--.--,56,0,10.6,9.3,43.4,24,33,0,--.--,--.--,--.--
37:07.7,-0.2,-0.3,54,0,0,0,0.7,0.5,0.51,0.2,1.4,38.6,1.91,1.959,0,0,00:00:13,1.7,0,--.--,215,14764184.8,18,0000:00:00,0,0,0,15.74,12.32,38,--.--,98,--.--,--:--:--,0,193.87,12:37:07,10-02-2022,--.--,--.--,--.--,--.--,--.--,--.--,--.--,--.--,--.--,--.--,--.--,--.--,0,0,0,0,0,0,0,0,0,0,0,0,0,FALSE,FALSE,FALSE,FALSE,FALSE,FALSE,FALSE,FALSE,FALSE,FALSE,FALSE,FALSE,--.--,--.--,--.--,--.--,--.--,--.--,--.--,--.--,11.2552738,75.8292847,43PEN 90518 44333,0.6,1,87.8,3,19,--.--,--.--,,--.--,--.--,--.--,0,0,--.--,--.--,0,1.4,1,-1.4,0,0.8,0,--.--,--.--,--.--,--.--,--.--,--.--,--.--,--.--,--.--,--.--,--.--,--.--,49.64,--.--,--.--,56,0,10.9,11.1,46.6,24,33,0,--.--,--.--,--.--
37:08.7,-0.1,0.1,53,0,0,0,1,0.9,0.936,0.2,1.6,38.8,2.1,2.176,0,2.1,00:00:14,2.4,0,--.--,231,14764184.8,14,0000:00:00,0,0,0,15.6,13.3,42,--.--,98,--.--,--:--:--,0,207.41,12:37:08,10-02-2022,--.--,--.--,--.--,--.--,--.--,--.--,--.--,--.--,--.--,--.--,--.--,--.--,0,0,0,0,0,0,0,0,0,0,0,0,0,FALSE,FALSE,FALSE,FALSE,FALSE,FALSE,FALSE,FALSE,FALSE,FALSE,FALSE,FALSE,--.--,--.--,--.--,--.--,--.--,--.--,--.--,--.--,11.2552744,75.8292916,43PEN 90519 44333,0.6,1,83.2,3,19,--.--,--.--,,--.--,--.--,--.--,0,0,--.--,--.--,0,1.5,1.6,-1.5,0,1,-0.2,--.--,--.--,--.--,--.--,--.--,--.--,--.--,--.--,--.--,--.--,--.--,--.--,49.65,--.--,--.--,56,0,11.1,11.5,46.8,24,33,0,--.--,--.--,--.--
37:09.7,-0.4,1.4,52,0,0,0,0.7,0.8,0.876,0,1.6,38.8,2.12,2.211,0,2.1,00:00:15,2.9,0,--.--,236,14764184.8,16,0000:00:00,0,0,0,15.67,12.21,45,--.--,98,--.--,--:--:--,0,191.34,12:37:09,10-02-2022,--.--,--.--,--.--,--.--,--.--,--.--,--.--,--.--,--.--,--.--,--.--,--.--,0,0,0,0,0,0,0,0,0,0,0,0,0,FALSE,FALSE,FALSE,FALSE,FALSE,FALSE,FALSE,FALSE,FALSE,FALSE,FALSE,FALSE,--.--,--.--,--.--,--.--,--.--,--.--,--.--,--.--,11.2552754,75.8292964,43PEN 90519 44333,0.6,1,81.1,3,19,--.--,--.--,,--.--,--.--,--.--,0,0,--.--,--.--,0,1.7,2.4,-1.6,0.1,0.8,0,--.--,--.--,--.--,--.--,--.--,--.--,--.--,--.--,--.--,--.--,--.--,--.--,49.64,--.--,--.--,56,0,13.1,13.8,50.6,24,33,0,--.--,--.--,--.--
37:10.7,0.1,-0.6,54,0,0,0,0.4,0.5,0.475,-0.2,1.6,38.8,2.12,2.21,0,2.1,00:00:16,3.6,0,--.--,235,14764184.2,17,0000:00:00,0,0,0,15.6,12.22,48,--.--,98,--.--,--:--:--,0,190.62,12:37:10,10-02-2022,--.--,--.--,--.--,--.--,--.--,--.--,--.--,--.--,--.--,--.--,--.--,--.--,0,0,0,0,0,0,0,0,0,0,0,0,0,FALSE,FALSE,FALSE,FALSE,FALSE,FALSE,FALSE,FALSE,FALSE,FALSE,FALSE,FALSE,--.--,--.--,--.--,--.--,--.--,--.--,--.--,--.--,11.2552781,75.8293036,43PEN 90520 44333,0.6,1,55.5,3,19,--.--,--.--,,--.--,--.--,--.--,0,0,--.--,--.--,0,2,3,-1.6,0.2,0.4,0.2,--.--,--.--,--.--,--.--,--.--,--.--,--.--,--.--,--.--,--.--,--.--,--.--,49.65,--.--,--.--,56,0,13.3,12.6,51.6,24,33,0,--.--,--.--,--.--
37:11.7,-1.3,0.5,53,0,0,0,0.5,0.5,0.493,-0.2,1.6,38.8,2.07,2.119,0,2.1,00:00:17,4,0,--.--,234,14764183.9,17,0000:00:00,0,0,0,15.62,13.24,53,--.--,98,--.--,--:--:--,0,206.78,12:37:11,10-02-2022,--.--,--.--,--.--,--.--,--.--,--.--,--.--,--.--,--.--,--.--,--.--,--.--,0,0,0,0,0,0,0,0,0,0,0,0,0,FALSE,FALSE,FALSE,FALSE,FALSE,FALSE,FALSE,FALSE,FALSE,FALSE,FALSE,FALSE,--.--,--.--,--.--,--.--,--.--,--.--,--.--,--.--,11.2552811,75.8293067,43PEN 90520 44334,0.6,1,43.3,3,19,--.--,--.--,,--.--,--.--,--.--,0,0,--.--,--.--,0,2.4,3.3,-1.6,0.4,0.3,0.2,--.--,--.--,--.--,--.--,--.--,--.--,--.--,--.--,--.--,--.--,--.--,--.--,49.66,--.--,--.--,56,0,17.5,17.1,63.4,29,36,0,--.--,--.--,--.--
37:12.7,1.6,0.2,54,0,0,0,0.4,0.5,0.512,0,1.6,38.8,2.1,2.153,0,4.2,00:00:18,4.3,0,--.--,231,14764183.6,18,0000:00:00,0,0,0,15.63,12.14,56,--.--,98,--.--,--:--:--,0,189.77,12:37:12,10-02-2022,--.--,--.--,--.--,--.--,--.--,--.--,--.--,--.--,--.--,--.--,--.--,--.--,0,0,0,0,0,0,0,0,0,0,0,0,0,FALSE,FALSE,FALSE,FALSE,FALSE,FALSE,FALSE,FALSE,FALSE,FALSE,FALSE,FALSE,--.--,--.--,--.--,--.--,--.--,--.--,--.--,--.--,11.2552834,75.8293082,43PEN 90520 44334,0.6,1,29.7,3,19,--.--,--.--,,--.--,--.--,--.--,0,0,--.--,--.--,0,2.7,3.4,-1.6,0.4,0.2,0.1,--.--,--.--,--.--,--.--,--.--,--.--,--.--,--.--,--.--,--.--,--.--,--.--,49.66,--.--,--.--,56,0,9,11,39.9,29,36,0,--.--,--.--,--.--
37:13.7,0.3,1.1,54,0,0,0,0.1,0.2,0.462,-0.2,1.6,38.8,2.13,2.176,0,4.2,00:00:19,4.8,0,--.--,230,14764182.9,18,0000:00:00,0,0,0,15.57,12.26,59,--.--,98,--.--,--:--:--,0,190.85,12:37:13,10-02-2022,--.--,--.--,--.--,--.--,--.--,--.--,--.--,--.--,--.--,--.--,--.--,--.--,0,0,0,0,0,0,0,0,0,0,0,0,0,FALSE,FALSE,FALSE,FALSE,FALSE,FALSE,FALSE,FALSE,FALSE,FALSE,FALSE,FALSE,--.--,--.--,--.--,--.--,--.--,--.--,--.--,--.--,11.2552889,75.8293109,43PEN 90521 44334,0.6,1,33,3,19,--.--,--.--,,--.--,--.--,--.--,0,0,--.--,--.--,0,3.1,3.6,-1.6,0.2,0.2,0.1,--.--,--.--,--.--,--.--,--.--,--.--,--.--,--.--,--.--,--.--,--.--,--.--,49.66,--.--,--.--,56,0,11.4,11.2,43.4,29,36,0,--.--,--.--,--.--
37:14.7,-0.2,-0.3,53,0,0,0,0.1,0.1,0.061,-0.2,1.6,38.8,2.09,2.158,0,4.2,00:00:20,4.9,0,--.--,229,14764182.9,18,0000:00:00,0,0,0,15.55,13.08,63,--.--,98,--.--,--:--:--,0,203.34,12:37:14,10-02-2022,--.--,--.--,--.--,--.--,--.--,--.--,--.--,--.--,--.--,--.--,--.--,--.--,0,0,0,0,0,0,0,0,0,0,0,0,0,FALSE,FALSE,FALSE,FALSE,FALSE,FALSE,FALSE,FALSE,FALSE,FALSE,FALSE,FALSE,--.--,--.--,--.--,--.--,--.--,--.--,--.--,--.--,11.2552897,75.8293115,43PEN 90521 44335,0.6,1,33,3,19,--.--,--.--,,--.--,--.--,--.--,0,0,--.--,--.--,0,3.2,3.7,-1.6,-0.1,0,0.1,--.--,--.--,--.--,--.--,--.--,--.--,--.--,--.--,--.--,--.--,--.--,--.--,49.66,--.--,--.--,56,0,13.1,11.8,50.6,29,36,0,--.--,--.--,--.--
37:15.7,-1.4,0.9,52,0,0,0,0,0.1,0.099,0.1,1.5,38.8,2.03,2.052,0,4.2,00:00:21,4.9,0,--.--,230,14764182.9,18,0000:00:00,0,0,0,15.6,13.49,67,--.--,97,--.--,--:--:--,0,210.39,12:37:15,10-02-2022,--.--,--.--,--.--,--.--,--.--,--.--,--.--,--.--,--.--,--.--,--.--,--.--,0,0,0,0,0,0,0,0,0,0,0,0,0,FALSE,FALSE,FALSE,FALSE,FALSE,FALSE,FALSE,FALSE,FALSE,FALSE,FALSE,FALSE,--.--,--.--,--.--,--.--,--.--,--.--,--.--,--.--,11.2552895,75.8293114,43PEN 90521 44335,0.6,1,33,3,19,--.--,--.--,,--.--,--.--,--.--,0,0,--.--,--.--,0,3.2,3.8,-1.5,0,0.1,0,--.--,--.--,--.--,--.--,--.--,--.--,--.--,--.--,--.--,--.--,--.--,--.--,49.66,--.--,--.--,56,0,12.7,11.4,48.5,29,36,0,--.--,--.--,--.--
37:16.7,-0.1,0.4,54,0,0,0,0.1,0,0.064,-0.1,1.5,38.7,2.04,2.057,0,4.2,00:00:22,4.9,0,--.--,229,14764182.6,17,0000:00:00,0,0,0,15.62,12.22,71,--.--,97,--.--,--:--:--,0,190.82,12:37:16,10-02-2022,--.--,--.--,--.--,--.--,--.--,--.--,--.--,--.--,--.--,--.--,--.--,--.--,0,0,0,0,0,0,0,0,0,0,0,0,0,FALSE,FALSE,FALSE,FALSE,FALSE,FALSE,FALSE,FALSE,FALSE,FALSE,FALSE,FALSE,--.--,--.--,--.--,--.--,--.--,--.--,--.--,--.--,11.2552893,75.8293118,43PEN 90521 44335,0.6,1,33,3,19,--.--,--.--,,--.--,--.--,--.--,0,0,--.--,--.--,0,3.2,3.7,-1.5,-0.1,0,0.1,--.--,--.--,--.--,--.--,--.--,--.--,--.--,--.--,--.--,--.--,--.--,--.--,49.65,--.--,--.--,56,0,8.6,11.3,38.9,29,36,0,--.--,--.--,--.--
37:17.7,-1.9,1.4,52,0,0,0,0.1,0.1,0.049,-0.2,1.5,38.8,2.04,2.071,0,4.2,00:00:23,4.9,0,--.--,230,14764182.6,19,0000:00:00,0,0,0,15.57,13.54,75,--.--,97,--.--,--:--:--,0,210.8,12:37:17,10-02-2022,--.--,--.--,--.--,--.--,--.--,--.--,--.--,--.--,--.--,--.--,--.--,--.--,0,0,0,0,0,0,0,0,0,0,0,0,0,FALSE,FALSE,FALSE,FALSE,FALSE,FALSE,FALSE,FALSE,FALSE,FALSE,FALSE,FALSE,--.--,--.--,--.--,--.--,--.--,--.--,--.--,--.--,11.2552894,75.8293123,43PEN 90521 44335,0.6,1,33,3,19,--.--,--.--,,--.--,--.--,--.--,0,0,--.--,--.--,0,3.2,3.8,-1.5,0,0.1,0,--.--,--.--,--.--,--.--,--.--,--.--,--.--,--.--,--.--,--.--,--.--,--.--,49.65,--.--,--.--,56,0,12.3,12.5,47.3,29,36,0,--.--,--.--,--.--
37:18.7,-1.9,1.3,54,0,0,0,0.1,0,0.035,-0.1,1.6,38.8,2.04,2.072,0,4.2,00:00:24,4.9,0,--.--,230,14764182.6,19,0000:00:00,0,0,0,15.52,13.61,77,--.--,97,--.--,--:--:--,0,211.2,12:37:18,10-02-2022,--.--,--.--,--.--,--.--,--.--,--.--,--.--,--.--,--.--,--.--,--.--,--.--,0,0,0,0,0,0,0,0,0,0,0,0,0,FALSE,FALSE,FALSE,FALSE,FALSE,FALSE,FALSE,FALSE,FALSE,FALSE,FALSE,FALSE,--.--,--.--,--.--,--.--,--.--,--.--,--.--,--.--,11.2552896,75.8293127,43PEN 90521 44335,0.6,1,33,3,19,--.--,--.--,,--.--,--.--,--.--,0,0,--.--,--.--,0,3.2,3.8,-1.6,0,0.1,0.2,--.--,--.--,--.--,--.--,--.--,--.--,--.--,--.--,--.--,--.--,--.--,--.--,49.65,--.--,--.--,56,0,10.7,10.8,42.9,29,36,0,--.--,--.--,--.--
37:19.7,-1.4,1.3,54,0,0,0,0.1,0,0.028,0,1.5,38.7,2.03,2.038,0,4.2,00:00:25,5,0,--.--,229,14764182.3,18,0000:00:00,0,0,0,15.54,13.23,82,--.--,97,--.--,--:--:--,0,205.66,12:37:19,10-02-2022,--.--,--.--,--.--,--.--,--.--,--.--,--.--,--.--,--.--,--.--,--.--,--.--,0,0,0,0,0,0,0,0,0,0,0,0,0,FALSE,FALSE,FALSE,FALSE,FALSE,FALSE,FALSE,FALSE,FALSE,FALSE,FALSE,FALSE,--.--,--.--,--.--,--.--,--.--,--.--,--.--,--.--,11.2552902,75.8293131,43PEN 90521 44335,0.6,1,33,3,19,--.--,--.--,,--.--,--.--,--.--,0,0,--.--,--.--,0,3.2,3.8,-1.5,-0.1,0,0,--.--,--.--,--.--,--.--,--.--,--.--,--.--,--.--,--.--,--.--,--.--,--.--,49.64,--.--,--.--,56,0,9.6,10.4,41.3,29,36,0,--.--,--.--,--.--
37:20.7,-1.5,0.9,54,0,0,0,0.1,0.1,0.214,0.1,1.5,38.8,2.04,2.041,0,4.2,00:00:26,4.9,0,--.--,230,14764182.3,19,0000:00:00,0,0,0,15.58,13.25,86,--.--,97,--.--,--:--:--,0,206.42,12:37:20,10-02-2022,--.--,--.--,--.--,--.--,--.--,--.--,--.--,--.--,--.--,--.--,--.--,--.--,0,0,0,0,0,0,0,0,0,0,0,0,0,FALSE,FALSE,FALSE,FALSE,FALSE,FALSE,FALSE,FALSE,FALSE,FALSE,FALSE,FALSE,--.--,--.--,--.--,--.--,--.--,--.--,--.--,--.--,11.25529,75.8293126,43PEN 90521 44335,0.6,1,33,3,19,--.--,--.--,,--.--,--.--,--.--,0,0,--.--,--.--,0,3.2,3.8,-1.5,-0.1,0.1,0.1,--.--,--.--,--.--,--.--,--.--,--.--,--.--,--.--,--.--,--.--,--.--,--.--,49.63,--.--,--.--,56,0,8.2,12.8,39.1,29,36,0,--.--,--.--,--.--
37:21.7,-2.9,-0.7,55,0,0,0,0.1,0.1,0.115,-0.1,1.5,38.7,2.03,2.039,0,4.2,00:00:27,4.8,0,--.--,230,14764182.4,20,0000:00:00,0,0,0,15.52,12.84,88,--.--,97,--.--,--:--:--,0,199.24,12:37:21,10-02-2022,--.--,--.--,--.--,--.--,--.--,--.--,--.--,--.--,--.--,--.--,--.--,--.--,0,0,0,0,0,0,0,0,0,0,0,0,0,FALSE,FALSE,FALSE,FALSE,FALSE,FALSE,FALSE,FALSE,FALSE,FALSE,FALSE,FALSE,--.--,--.--,--.--,--.--,--.--,--.--,--.--,--.--,11.2552891,75.829312,43PEN 90521 44334,0.6,1,33,3,19,--.--,--.--,,--.--,--.--,--.--,0,0,--.--,--.--,0,3.1,3.7,-1.5,-0.1,0,0,--.--,--.--,--.--,--.--,--.--,--.--,--.--,--.--,--.--,--.--,--.--,--.--,49.62,--.--,--.--,56,0,4.7,11.5,21,29,36,0,--.--,--.--,--.--
37:22.7,-1,0.7,54,0,0,0,0.1,0.1,0.167,0,1.5,38.8,2.06,2.037,0,4.2,00:00:28,4.9,0,--.--,229,14764182.1,19,0000:00:00,0,0,0,15.47,13.89,93,--.--,97,--.--,--:--:--,0,214.92,12:37:22,10-02-2022,--.--,--.--,--.--,--.--,--.--,--.--,--.--,--.--,--.--,--.--,--.--,--.--,0,0,0,0,0,0,0,0,0,0,0,0,0,FALSE,FALSE,FALSE,FALSE,FALSE,FALSE,FALSE,FALSE,FALSE,FALSE,FALSE,FALSE,--.--,--.--,--.--,--.--,--.--,--.--,--.--,--.--,11.2552892,75.8293114,43PEN 90521 44334,0.6,1,33,3,19,--.--,--.--,,--.--,--.--,--.--,0,0,--.--,--.--,0,3.2,3.7,-1.5,0.1,0,0,--.--,--.--,--.--,--.--,--.--,--.--,--.--,--.--,--.--,--.--,--.--,--.--,49.61,--.--,--.--,56,0,8.2,9.5,35.4,30,37,0,--.--,--.--,--.--
37:23.7,-3.1,3.2,51,0,0,0,0.2,0.1,0.092,0,1.7,38.9,2.19,2.315,0,4.2,00:00:29,5,0,--.--,229,14764182.1,17,0000:00:00,0,0,0,15.57,12.93,97,--.--,97,--.--,--:--:--,0,201.33,12:37:23,10-02-2022,--.--,--.--,--.--,--.--,--.--,--.--,--.--,--.--,--.--,--.--,--.--,--.--,0,0,0,0,0,0,0,0,0,0,0,0,0,FALSE,FALSE,FALSE,FALSE,FALSE,FALSE,FALSE,FALSE,FALSE,FALSE,FALSE,FALSE,--.--,--.--,--.--,--.--,--.--,--.--,--.--,--.--,11.2552898,75.8293119,43PEN 90521 44335,0.6,1,33,3,19,--.--,--.--,,--.--,--.--,--.--,0,0,--.--,--.--,0,3.3,3.8,-1.7,-0.1,0.1,0,--.--,--.--,--.--,--.--,--.--,--.--,--.--,--.--,--.--,--.--,--.--,--.--,49.6,--.--,--.--,56,0,6.8,9.9,32.1,30,37,0,--.--,--.--,--.--
37:24.7,-1.4,-1.5,53,0,0,0,0,0.1,0.1,-0.1,1.7,39,2.24,2.438,0,4.2,00:00:30,4.9,0,--.--,229,14764182.1,17,0000:00:00,0,0,0,15.48,12.52,100,--.--,96,--.--,--:--:--,0,193.87,12:37:24,10-02-2022,--.--,--.--,--.--,--.--,--.--,--.--,--.--,--.--,--.--,--.--,--.--,--.--,0,0,0,0,0,0,0,0,0,0,0,0,0,FALSE,FALSE,FALSE,FALSE,FALSE,FALSE,FALSE,FALSE,FALSE,FALSE,FALSE,FALSE,--.--,--.--,--.--,--.--,--.--,--.--,--.--,--.--,11.2552897,75.8293118,43PEN 90521 44335,0.6,1,33,3,19,--.--,--.--,,--.--,--.--,--.--,0,0,--.--,--.--,0,3.2,3.7,-1.7,0,0,0.1,--.--,--.--,--.--,--.--,--.--,--.--,--.--,--.--,--.--,--.--,--.--,--.--,49.59,--.--,--.--,56,0,8.5,12.2,39,30,37,0,--.--,--.--,--.--
37:25.7,-2.7,3.3,52,0,0,0,0.1,0.1,0.032,0,1.6,38.8,2.05,2.08,0,4.2,00:00:31,5,0,--.--,229,14764181.8,19,0000:00:00,0,0,0,15.47,13.85,105,--.--,96,--.--,--:--:--,0,214.23,12:37:25,10-02-2022,--.--,--.--,--.--,--.--,--.--,--.--,--.--,--.--,--.--,--.--,--.--,--.--,0,0,0,0,0,0,0,0,0,0,0,0,0,FALSE,FALSE,FALSE,FALSE,FALSE,FALSE,FALSE,FALSE,FALSE,FALSE,FALSE,FALSE,--.--,--.--,--.--,--.--,--.--,--.--,--.--,--.--,11.2552905,75.8293112,43PEN 90521 44335,0.6,1,33,3,19,--.--,--.--,,--.--,--.--,--.--,0,0,--.--,--.--,0,3.3,3.7,-1.6,-0.1,0,0,--.--,--.--,--.--,--.--,--.--,--.--,--.--,--.--,--.--,--.--,--.--,--.--,49.58,--.--,--.--,56,0,7.5,8.5,32.1,30,37,0,--.--,--.--,--.--
37:26.7,-2.2,0.7,52,0,0,0,0.1,0.1,0.122,-0.1,1.5,38.8,2.05,2.055,0,4.2,00:00:32,4.9,0,--.--,229,14764181.8,19,0000:00:00,0,0,0,15.34,13.33,107,--.--,96,--.--,--:--:--,0,204.44,12:37:26,10-02-2022,--.--,--.--,--.--,--.--,--.--,--.--,--.--,--.--,--.--,--.--,--.--,--.--,0,0,0,0,0,0,0,0,0,0,0,0,0,FALSE,FALSE,FALSE,FALSE,FALSE,FALSE,FALSE,FALSE,FALSE,FALSE,FALSE,FALSE,--.--,--.--,--.--,--.--,--.--,--.--,--.--,--.--,11.2552903,75.829311,43PEN 90521 44335,0.6,1,33,3,19,--.--,--.--,,--.--,--.--,--.--,0,0,--.--,--.--,0,3.2,3.7,-1.5,-0.1,-0.1,-0.1,--.--,--.--,--.--,--.--,--.--,--.--,--.--,--.--,--.--,--.--,--.--,--.--,49.57,--.--,--.--,56,0,8.7,9.8,37.4,30,37,0,--.--,--.--,--.--
37:27.7,-1.9,1.6,52,0,0,0,0,0,0.037,-0.1,1.6,38.8,2.08,2.1,0,4.2,00:00:33,4.8,0,--.--,228,14764181.8,19,0000:00:00,0,0,0,15.33,12.19,111,--.--,96,--.--,--:--:--,0,186.82,12:37:27,10-02-2022,--.--,--.--,--.--,--.--,--.--,--.--,--.--,--.--,--.--,--.--,--.--,--.--,0,0,0,0,0,0,0,0,0,0,0,0,0,FALSE,FALSE,FALSE,FALSE,FALSE,FALSE,FALSE,FALSE,FALSE,FALSE,FALSE,FALSE,--.--,--.--,--.--,--.--,--.--,--.--,--.--,--.--,11.2552902,75.8293108,43PEN 90521 44335,0.6,1,33,3,19,--.--,--.--,,--.--,--.--,--.--,0,0,--.--,--.--,0,3.2,3.6,-1.6,-0.1,0.1,0.1,--.--,--.--,--.--,--.--,--.--,--.--,--.--,--.--,--.--,--.--,--.--,--.--,49.56,--.--,--.--,56,0,7.9,9,33.7,30,37,0,--.--,--.--,--.--
37:28.7,0.6,0.9,55,0,0,0,0.1,0,0.125,-0.1,1.6,38.8,2.08,2.132,0,4.2,00:00:34,4.9,0,--.--,228,14764181.8,18,0000:00:00,0,0,0,15.51,12.46,116,--.--,96,--.--,--:--:--,0,193.24,12:37:28,10-02-2022,--.--,--.--,--.--,--.--,--.--,--.--,--.--,--.--,--.--,--.--,--.--,--.--,0,0,0,0,0,0,0,0,0,0,0,0,0,FALSE,FALSE,FALSE,FALSE,FALSE,FALSE,FALSE,FALSE,FALSE,FALSE,FALSE,FALSE,--.--,--.--,--.--,--.--,--.--,--.--,--.--,--.--,11.2552907,75.8293111,43PEN 90521 44335,0.6,1,33,3,19,--.--,--.--,,--.--,--.--,--.--,0,0,--.--,--.--,0,3.3,3.6,-1.6,-0.1,0,0,--.--,--.--,--.--,--.--,--.--,--.--,--.--,--.--,--.--,--.--,--.--,--.--,49.54,--.--,--.--,56,0,8,7.5,31.9,30,37,0,--.--,--.--,--.--
37:29.7,-1,0.8,54,0,0,0,0.2,0.1,0.144,0,1.6,38.8,2.08,2.133,0,4.2,00:00:35,4.9,0,--.--,228,14764181.8,18,0000:00:00,0,0,0,15.47,13.28,118,--.--,96,--.--,--:--:--,0,205.44,12:37:29,10-02-2022,--.--,--.--,--.--,--.--,--.--,--.--,--.--,--.--,--.--,--.--,--.--,--.--,0,0,0,0,0,0,0,0,0,0,0,0,0,FALSE,FALSE,FALSE,FALSE,FALSE,FALSE,FALSE,FALSE,FALSE,FALSE,FALSE,FALSE,--.--,--.--,--.--,--.--,--.--,--.--,--.--,--.--,11.2552909,75.8293111,43PEN 90521 44335,0.6,1,33,3,19,--.--,--.--,,--.--,--.--,--.--,0,0,--.--,--.--,0,3.3,3.7,-1.6,-0.2,0,-0.1,--.--,--.--,--.--,--.--,--.--,--.--,--.--,--.--,--.--,--.--,--.--,--.--,49.53,--.--,--.--,56,0,9.5,11.2,41.8,30,37,0,--.--,--.--,--.--
37:30.7,-2.6,0.5,53,0,0,0,0.2,0.2,0.19,0,1.6,38.8,2.09,2.159,0,4.2,00:00:36,4.8,0,--.--,230,14764181.9,20,0000:00:00,0,0,0,15.45,13.11,122,--.--,96,--.--,--:--:--,0,202.52,12:37:30,10-02-2022,--.--,--.--,--.--,--.--,--.--,--.--,--.--,--.--,--.--,--.--,--.--,--.--,0,0,0,0,0,0,0,0,0,0,0,0,0,FALSE,FALSE,FALSE,FALSE,FALSE,FALSE,FALSE,FALSE,FALSE,FALSE,FALSE,FALSE,--.--,--.--,--.--,--.--,--.--,--.--,--.--,--.--,11.2552896,75.8293112,43PEN 90521 44335,0.6,1,33,3,19,--.--,--.--,,--.--,--.--,--.--,0,0,--.--,--.--,0,3.1,3.7,-1.6,-0.2,0.2,0.2,--.--,--.--,--.--,--.--,--.--,--.--,--.--,--.--,--.--,--.--,--.--,--.--,49.52,--.--,--.--,56,0,8,13.4,37.3,30,37,0,--.--,--.--,--.--
37:31.7,-4.2,1.2,53,0,0,0,0,0,0.038,0,1.6,38.8,2.06,2.097,0,4.2,00:00:37,4.9,0,--.--,231,14764182.1,20,0000:00:00,0,0,0,15.44,14.2,127,--.--,96,--.--,--:--:--,0,219.19,12:37:31,10-02-2022,--.--,--.--,--.--,--.--,--.--,--.--,--.--,--.--,--.--,--.--,--.--,--.--,0,0,0,0,0,0,0,0,0,0,0,0,0,FALSE,FALSE,FALSE,FALSE,FALSE,FALSE,FALSE,FALSE,FALSE,FALSE,FALSE,FALSE,--.--,--.--,--.--,--.--,--.--,--.--,--.--,--.--,11.2552885,75.8293124,43PEN 90521 44334,0.6,1,33,3,19,--.--,--.--,,--.--,--.--,--.--,0,0,--.--,--.--,0,3.1,3.8,-1.6,0,0,0.1,--.--,--.--,--.--,--.--,--.--,--.--,--.--,--.--,--.--,--.--,--.--,--.--,49.5,--.--,--.--,56,0,9.6,12.2,43.9,30,37,0,--.--,--.--,--.--
37:32.7,-1.7,-1.2,54,0,0,0,0.3,0.2,0.229,-0.1,1.6,38.8,2.1,2.175,0,4.2,00:00:38,5,0,--.--,230,14764182,19,0000:00:00,0,0,0,15.46,12.98,130,--.--,96,--.--,--:--:--,0,200.72,12:37:32,10-02-2022,--.--,--.--,--.--,--.--,--.--,--.--,--.--,--.--,--.--,--.--,--.--,--.--,0,0,0,0,0,0,0,0,0,0,0,0,0,FALSE,FALSE,FALSE,FALSE,FALSE,FALSE,FALSE,FALSE,FALSE,FALSE,FALSE,FALSE,--.--,--.--,--.--,--.--,--.--,--.--,--.--,--.--,11.2552888,75.8293125,43PEN 90521 44334,0.6,1,33,3,19,--.--,--.--,,--.--,--.--,--.--,0,0,--.--,--.--,0,3.2,3.8,-1.6,0.2,0.1,0.1,--.--,--.--,--.--,--.--,--.--,--.--,--.--,--.--,--.--,--.--,--.--,--.--,49.49,--.--,--.--,56,0,5.9,10,26.1,30,37,0,--.--,--.--,--.--
