Timestamp,roll,pitch,heading,rollRate,pitchRate,yawRate,groundSpeed,airSpeed,airSpeedSetpoint,climbRate,altitudeRelative,altitudeAMSL,altitudeTuning,altitudeTuningSetpoint,xTrackError,rangeFinderDist,flightDistance,flightTime,distanceToHome,missionItemIndex,headingToNextWP,headingToHome,distanceToGCS,throttlePct,hobbs,battery0.id,battery0.batteryFunction,battery0.batteryType,battery0.voltage,battery0.current,battery0.mahConsumed,battery0.temperature,battery0.percentRemaining,battery0.timeRemaining,battery0.timeRemainingStr,battery0.chargeState,battery0.instantPower,clock.currentTime,clock.currentDate,distanceSensor.rotationNone,distanceSensor.rotationYaw45,distanceSensor.rotationYaw90,distanceSensor.rotationYaw135,distanceSensor.rotationYaw180,distanceSensor.rotationYaw225,distanceSensor.rotationYaw270,distanceSensor.rotationYaw315,distanceSensor.rotationPitch90,distanceSensor.rotationPitch270,distanceSensor.minDistance,distanceSensor.maxDistance,escStatus.index,escStatus.rpm1,escStatus.rpm2,escStatus.rpm3,escStatus.rpm4,escStatus.current1,escStatus.current2,escStatus.current3,escStatus.current4,escStatus.voltage1,escStatus.voltage2,escStatus.voltage3,escStatus.voltage4,estimatorStatus.goodAttitudeEsimate,estimatorStatus.goodHorizVelEstimate,estimatorStatus.goodVertVelEstimate,estimatorStatus.goodHorizPosRelEstimate,estimatorStatus.goodHorizPosAbsEstimate,estimatorStatus.goodVertPosAbsEstimate,estimatorStatus.goodVertPosAGLEstimate,estimatorStatus.goodConstPosModeEstimate,estimatorStatus.goodPredHorizPosRelEstimate,estimatorStatus.goodPredHorizPosAbsEstimate,estimatorStatus.gpsGlitch,estimatorStatus.accelError,estimatorStatus.velRatio,estimatorStatus.horizPosRatio,estimatorStatus.vertPosRatio,estimatorStatus.magRatio,estimatorStatus.haglRatio,estimatorStatus.tasRatio,estimatorStatus.horizPosAccuracy,estimatorStatus.vertPosAccuracy,gps.lat,gps.lon,gps.mgrs,gps.hdop,gps.vdop,gps.courseOverGround,gps.lock,gps.count,gps2.lat,gps2.lon,gps2.mgrs,gps2.hdop,gps2.vdop,gps2.courseOverGround,gps2.lock,gps2.count,hygrometer.temperature,hygrometer.humidity,hygrometer.hygrometerid,localPosition.x,localPosition.y,localPosition.z,localPosition.vx,localPosition.vy,localPosition.vz,localPositionSetpoint.x,localPositionSetpoint.y,localPositionSetpoint.z,localPositionSetpoint.vx,localPositionSetpoint.vy,localPositionSetpoint.vz,setpoint.roll,setpoint.pitch,setpoint.yaw,setpoint.rollRate,setpoint.pitchRate,setpoint.yawRate,temperature.temperature1,temperature.temperature2,temperature.temperature3,terrain.blocksPending,terrain.blocksLoaded,vibration.xAxis,vibration.yAxis,vibration.zAxis,vibration.clipCount1,vibration.clipCount2,vibration.clipCount3,wind.direction,wind.speed,wind.verticalSpeed
42:17.3,-0.7,-0.7,35,0,0,0,0,0,0.017,0,0.4,10.3,-0.01,-0.01,0,0,0,00:00:00,2.6,0,--.--,8,--.--,0,0000:00:00,0,0,0,25.09,0.03,1,--.--,99,--.--,--:--:--,1,0.75,nan,nan,--.--,--.--,--.--,--.--,--.--,--.--,--.--,--.--,--.--,--.--,--.--,--.--,0,0,0,0,0,0,0,0,0,0,0,0,0,FALSE,FALSE,FALSE,FALSE,FALSE,FALSE,FALSE,FALSE,FALSE,FALSE,FALSE,FALSE,--.--,--.--,--.--,--.--,--.--,--.--,--.--,--.--,10.000134,76.3542918,43PFM 48437 05731,0.7,1.2,322.1,3,14,--.--,--.--,,--.--,--.--,--.--,0,0,--.--,--.--,0,-2.5,-0.4,-0.4,0,0,0,--.--,--.--,--.--,--.--,--.--,--.--,--.--,--.--,--.--,--.--,--.--,--.--,45.68,48.91,--.--,0,224,0,0,0,0,0,0,180,0,0
42:18.2,-0.7,-0.7,35,0,0,0,0,0,0.023,0,0.4,10.3,0.02,0.01,0,0,0,00:00:00,2.6,0,--.--,8,--.--,0,0000:00:00,0,0,0,25.04,0.02,1,--.--,99,--.--,--:--:--,1,0.5,15:42:17,10-11-2023,--.--,--.--,--.--,--.--,--.--,--.--,--.--,--.--,--.--,--.--,--.--,--.--,0,0,0,0,0,0,0,0,0,0,0,0,0,FALSE,FALSE,FALSE,FALSE,FALSE,FALSE,FALSE,FALSE,FALSE,FALSE,FALSE,FALSE,--.--,--.--,--.--,--.--,--.--,--.--,--.--,--.--,10.0001341,76.3542914,43PFM 48437 05731,0.7,1.2,82.9,3,14,--.--,--.--,,--.--,--.--,--.--,0,0,--.--,--.--,0,-2.5,-0.4,-0.4,0,0,0,--.--,--.--,--.--,--.--,--.--,--.--,--.--,--.--,--.--,--.--,--.--,--.--,45.68,48.94,--.--,0,224,0,0,0,0,0,0,180,0,0
42:19.2,-0.6,-0.7,35,0,0,0,0,0,0.023,0,0.4,10.3,0.03,0.01,0,0,0,00:00:00,2.5,0,--.--,9,--.--,0,0000:00:00,0,0,0,25.02,0.28,1,--.--,99,--.--,--:--:--,1,7.01,15:42:18,10-11-2023,--.--,--.--,--.--,--.--,--.--,--.--,--.--,--.--,--.--,--.--,--.--,--.--,0,0,0,0,0,0,0,0,0,0,0,0,0,FALSE,FALSE,FALSE,FALSE,FALSE,FALSE,FALSE,FALSE,FALSE,FALSE,FALSE,FALSE,--.--,--.--,--.--,--.--,--.--,--.--,--.--,--.--,10.0001341,76.3542914,43PFM 48437 05731,0.7,1.2,82.9,3,14,--.--,--.--,,--.--,--.--,--.--,0,0,--.--,--.--,0,-2.5,-0.4,-0.4,0,0,0,--.--,--.--,--.--,--.--,--.--,--.--,--.--,--.--,--.--,--.--,--.--,--.--,45.68,48.94,--.--,0,224,0,0,0,0,0,0,180,0,0
42:20.2,-0.6,-0.7,35,0,0,0,0,0,0.016,0,0.4,10.3,0.04,0.03,0,0,0,00:00:00,2.5,0,--.--,9,--.--,0,0000:00:00,0,0,0,25.02,0.28,1,--.--,99,--.--,--:--:--,1,7.01,15:42:19,10-11-2023,--.--,--.--,--.--,--.--,--.--,--.--,--.--,--.--,--.--,--.--,--.--,--.--,0,0,0,0,0,0,0,0,0,0,0,0,0,FALSE,FALSE,FALSE,FALSE,FALSE,FALSE,FALSE,FALSE,FALSE,FALSE,FALSE,FALSE,--.--,--.--,--.--,--.--,--.--,--.--,--.--,--.--,10.0001345,76.3542911,43PFM 48437 05732,0.7,1.2,339.4,3,14,--.--,--.--,,--.--,--.--,--.--,0,0,--.--,--.--,0,-2.5,-0.4,-0.4,0,0,0,--.--,--.--,--.--,--.--,--.--,--.--,--.--,--.--,--.--,--.--,--.--,--.--,45.68,48.98,--.--,0,224,0,0,0,0,0,0,180,0,0
42:21.2,-0.6,-0.7,35,0,0,0,0,0,0.016,0,0.5,10.4,0.08,0.03,0,0,0,00:00:00,2.5,0,--.--,9,--.--,0,0000:00:00,0,0,0,25.08,0.03,1,--.--,99,--.--,--:--:--,1,0.75,15:42:20,10-11-2023,--.--,--.--,--.--,--.--,--.--,--.--,--.--,--.--,--.--,--.--,--.--,--.--,0,0,0,0,0,0,0,0,0,0,0,0,0,FALSE,FALSE,FALSE,FALSE,FALSE,FALSE,FALSE,FALSE,FALSE,FALSE,FALSE,FALSE,--.--,--.--,--.--,--.--,--.--,--.--,--.--,--.--,10.0001345,76.3542911,43PFM 48437 05732,0.7,1.2,339.4,3,14,--.--,--.--,,--.--,--.--,--.--,0,0,--.--,--.--,0,-2.5,-0.4,-0.5,0,0,0,--.--,--.--,--.--,--.--,--.--,--.--,--.--,--.--,--.--,--.--,--.--,--.--,45.68,48.98,--.--,0,224,0,0,0,0,0,0,180,0,0
42:22.2,-0.6,-0.7,35,0,0,0,0,0,0.026,0,0.5,10.4,0.1,0.1,0,0,0,00:00:00,2.5,0,--.--,10,--.--,0,0000:00:00,0,0,0,25.07,0.03,1,--.--,99,--.--,--:--:--,1,0.75,15:42:21,10-11-2023,--.--,--.--,--.--,--.--,--.--,--.--,--.--,--.--,--.--,--.--,--.--,--.--,0,0,0,0,0,0,0,0,0,0,0,0,0,FALSE,FALSE,FALSE,FALSE,FALSE,FALSE,FALSE,FALSE,FALSE,FALSE,FALSE,FALSE,--.--,--.--,--.--,--.--,--.--,--.--,--.--,--.--,10.0001347,76.3542907,43PFM 48437 05732,0.7,1.2,147.4,3,14,--.--,--.--,,--.--,--.--,--.--,0,0,--.--,--.--,0,-2.5,-0.4,-0.5,0,0,0,--.--,--.--,--.--,--.--,--.--,--.--,--.--,--.--,--.--,--.--,--.--,--.--,45.67,49.02,--.--,0,224,0,0,0,0,0,0,180,0,0
42:23.2,-0.6,-0.7,35,0,0,0,0,0,0.026,0,0.5,10.4,0.08,0.1,0,0,0,00:00:00,2.5,0,--.--,11,--.--,0,0000:00:00,0,0,0,25.07,0.03,1,--.--,99,--.--,--:--:--,1,0.75,15:42:22,10-11-2023,--.--,--.--,--.--,--.--,--.--,--.--,--.--,--.--,--.--,--.--,--.--,--.--,0,0,0,0,0,0,0,0,0,0,0,0,0,FALSE,FALSE,FALSE,FALSE,FALSE,FALSE,FALSE,FALSE,FALSE,FALSE,FALSE,FALSE,--.--,--.--,--.--,--.--,--.--,--.--,--.--,--.--,10.0001347,76.3542907,43PFM 48437 05732,0.7,1.2,147.4,3,14,--.--,--.--,,--.--,--.--,--.--,0,0,--.--,--.--,0,-2.4,-0.5,-0.5,0,0,0,--.--,--.--,--.--,--.--,--.--,--.--,--.--,--.--,--.--,--.--,--.--,--.--,45.67,49.02,--.--,0,224,0,0,0,0,0,0,180,0,0
42:24.2,-0.6,-0.7,35,0,0,0,0,0,0.016,0,0.5,10.4,0.07,0.07,0,0,0,00:00:00,2.5,0,--.--,11,--.--,0,0000:00:00,0,0,0,25.07,0.03,1,--.--,99,--.--,--:--:--,1,0.75,15:42:23,10-11-2023,--.--,--.--,--.--,--.--,--.--,--.--,--.--,--.--,--.--,--.--,--.--,--.--,0,0,0,0,0,0,0,0,0,0,0,0,0,FALSE,FALSE,FALSE,FALSE,FALSE,FALSE,FALSE,FALSE,FALSE,FALSE,FALSE,FALSE,--.--,--.--,--.--,--.--,--.--,--.--,--.--,--.--,10.0001347,76.3542907,43PFM 48437 05732,0.7,1.2,147.4,3,14,--.--,--.--,,--.--,--.--,--.--,0,0,--.--,--.--,0,-2.4,-0.5,-0.5,0,0,0,--.--,--.--,--.--,--.--,--.--,--.--,--.--,--.--,--.--,--.--,--.--,--.--,45.67,49.02,--.--,0,224,0,0,0,0,0,0,180,0,0
42:25.2,-0.6,-0.7,35,0,0,0,0,0,0.016,0,0.5,10.4,0.09,0.07,0,0,0,00:00:00,2.5,0,--.--,12,--.--,0,0000:00:00,0,0,0,25.05,0.02,1,--.--,99,--.--,--:--:--,1,0.5,15:42:24,10-11-2023,--.--,--.--,--.--,--.--,--.--,--.--,--.--,--.--,--.--,--.--,--.--,--.--,0,0,0,0,0,0,0,0,0,0,0,0,0,FALSE,FALSE,FALSE,FALSE,FALSE,FALSE,FALSE,FALSE,FALSE,FALSE,FALSE,FALSE,--.--,--.--,--.--,--.--,--.--,--.--,--.--,--.--,10.0001347,76.3542907,43PFM 48437 05732,0.7,1.2,147.4,3,14,--.--,--.--,,--.--,--.--,--.--,0,0,--.--,--.--,0,-2.4,-0.5,-0.5,0,0,0,--.--,--.--,--.--,--.--,--.--,--.--,--.--,--.--,--.--,--.--,--.--,--.--,45.67,49.02,--.--,0,224,0,0,0,0,0,0,180,0,0
42:26.2,-0.6,-0.7,35,0,0,0,0,0,0.024,0,0.5,10.4,0.09,0.08,0,0,0,00:00:00,2.5,0,--.--,13,--.--,0,0000:00:00,0,0,0,25.03,0.15,1,--.--,99,--.--,--:--:--,1,3.75,15:42:25,10-11-2023,--.--,--.--,--.--,--.--,--.--,--.--,--.--,--.--,--.--,--.--,--.--,--.--,0,0,0,0,0,0,0,0,0,0,0,0,0,FALSE,FALSE,FALSE,FALSE,FALSE,FALSE,FALSE,FALSE,FALSE,FALSE,FALSE,FALSE,--.--,--.--,--.--,--.--,--.--,--.--,--.--,--.--,10.0001351,76.35429,43PFM 48437 05732,0.7,1.2,40.1,3,14,--.--,--.--,,--.--,--.--,--.--,0,0,--.--,--.--,0,-2.4,-0.6,-0.5,0,0,0,--.--,--.--,--.--,--.--,--.--,--.--,--.--,--.--,--.--,--.--,--.--,--.--,45.67,49.11,--.--,0,224,0,0,0,0,0,0,180,0,0
42:27.2,-0.6,-0.7,35,0,0,0,0,0,0.024,0,0.5,10.4,0.07,0.08,0,0,0,00:00:00,2.5,0,--.--,14,--.--,0,0000:00:00,0,0,0,25.03,0.15,1,--.--,99,--.--,--:--:--,1,3.75,15:42:26,10-11-2023,--.--,--.--,--.--,--.--,--.--,--.--,--.--,--.--,--.--,--.--,--.--,--.--,0,0,0,0,0,0,0,0,0,0,0,0,0,FALSE,FALSE,FALSE,FALSE,FALSE,FALSE,FALSE,FALSE,FALSE,FALSE,FALSE,FALSE,--.--,--.--,--.--,--.--,--.--,--.--,--.--,--.--,10.0001351,76.35429,43PFM 48437 05732,0.7,1.2,40.1,3,14,--.--,--.--,,--.--,--.--,--.--,0,0,--.--,--.--,0,-2.4,-0.6,-0.5,0,0,0,--.--,--.--,--.--,--.--,--.--,--.--,--.--,--.--,--.--,--.--,--.--,--.--,45.67,49.11,--.--,0,224,0,0,0,0,0,0,180,0,0
42:28.2,-0.6,-0.7,35,0,0,0,0,0,0.012,0,0.5,10.4,0.05,0.07,0,0,0,00:00:00,2.5,0,--.--,14,--.--,0,0000:00:00,0,0,0,25.03,0.15,1,--.--,99,--.--,--:--:--,1,3.75,15:42:27,10-11-2023,--.--,--.--,--.--,--.--,--.--,--.--,--.--,--.--,--.--,--.--,--.--,--.--,0,0,0,0,0,0,0,0,0,0,0,0,0,FALSE,FALSE,FALSE,FALSE,FALSE,FALSE,FALSE,FALSE,FALSE,FALSE,FALSE,FALSE,--.--,--.--,--.--,--.--,--.--,--.--,--.--,--.--,10.0001351,76.35429,43PFM 48437 05732,0.7,1.2,155.6,3,15,--.--,--.--,,--.--,--.--,--.--,0,0,--.--,--.--,0,-2.4,-0.6,-0.5,0,0,0,--.--,--.--,--.--,--.--,--.--,--.--,--.--,--.--,--.--,--.--,--.--,--.--,45.68,49.15,--.--,0,224,0,0,0,0,0,0,180,0,0
42:29.2,-0.6,-0.7,35,0,0,0,0,0,0.012,0,0.5,10.3,0.02,0.07,0,0,0,00:00:00,2.5,0,--.--,14,--.--,0,0000:00:00,0,0,0,25.07,0.03,1,--.--,99,--.--,--:--:--,1,0.75,15:42:28,10-11-2023,--.--,--.--,--.--,--.--,--.--,--.--,--.--,--.--,--.--,--.--,--.--,--.--,0,0,0,0,0,0,0,0,0,0,0,0,0,FALSE,FALSE,FALSE,FALSE,FALSE,FALSE,FALSE,FALSE,FALSE,FALSE,FALSE,FALSE,--.--,--.--,--.--,--.--,--.--,--.--,--.--,--.--,10.0001351,76.35429,43PFM 48437 05732,0.7,1.2,155.6,3,15,--.--,--.--,,--.--,--.--,--.--,0,0,--.--,--.--,0,-2.4,-0.6,-0.5,0,0,0,--.--,--.--,--.--,--.--,--.--,--.--,--.--,--.--,--.--,--.--,--.--,--.--,45.68,49.15,--.--,0,224,0,0,0,0,0,0,180,0,0
42:30.2,-0.6,-0.7,35,0,0,0,0,0,0.015,0,0.4,10.3,-0.02,0,0,0,0,00:00:00,2.5,0,--.--,14,--.--,0,0000:00:00,0,0,0,25.05,0.03,1,--.--,99,--.--,--:--:--,1,0.75,15:42:29,10-11-2023,--.--,--.--,--.--,--.--,--.--,--.--,--.--,--.--,--.--,--.--,--.--,--.--,0,0,0,0,0,0,0,0,0,0,0,0,0,FALSE,FALSE,FALSE,FALSE,FALSE,FALSE,FALSE,FALSE,FALSE,FALSE,FALSE,FALSE,--.--,--.--,--.--,--.--,--.--,--.--,--.--,--.--,10.0001352,76.3542898,43PFM 48437 05732,0.7,1.2,357.2,3,15,--.--,--.--,,--.--,--.--,--.--,0,0,--.--,--.--,0,-2.4,-0.6,-0.4,0,0,0,--.--,--.--,--.--,--.--,--.--,--.--,--.--,--.--,--.--,--.--,--.--,--.--,45.69,49.2,--.--,0,224,0,0,0,0,0,0,180,0,0
42:31.2,-0.6,-0.7,35,0,0,0,0,0,0.015,0,0.4,10.2,-0.06,0,0,0,0,00:00:00,2.4,0,--.--,14,--.--,0,0000:00:00,0,0,0,25.06,0.03,1,--.--,99,--.--,--:--:--,1,0.75,15:42:30,10-11-2023,--.--,--.--,--.--,--.--,--.--,--.--,--.--,--.--,--.--,--.--,--.--,--.--,0,0,0,0,0,0,0,0,0,0,0,0,0,FALSE,FALSE,FALSE,FALSE,FALSE,FALSE,FALSE,FALSE,FALSE,FALSE,FALSE,FALSE,--.--,--.--,--.--,--.--,--.--,--.--,--.--,--.--,10.0001352,76.3542898,43PFM 48437 05732,0.7,1.2,357.2,3,15,--.--,--.--,,--.--,--.--,--.--,0,0,--.--,--.--,0,-2.4,-0.6,-0.4,0,0,0,--.--,--.--,--.--,--.--,--.--,--.--,--.--,--.--,--.--,--.--,--.--,--.--,45.69,49.2,--.--,0,224,0,0,0,0,0,0,180,0,0
42:32.2,-0.6,-0.7,35,0,0,0,0,0,0.02,0,0.4,10.2,-0.06,-0.06,0,0,0,00:00:00,2.4,0,--.--,14,--.--,0,0000:00:00,0,0,0,25.06,0.03,1,--.--,99,--.--,--:--:--,1,0.75,15:42:31,10-11-2023,--.--,--.--,--.--,--.--,--.--,--.--,--.--,--.--,--.--,--.--,--.--,--.--,0,0,0,0,0,0,0,0,0,0,0,0,0,FALSE,FALSE,FALSE,FALSE,FALSE,FALSE,FALSE,FALSE,FALSE,FALSE,FALSE,FALSE,--.--,--.--,--.--,--.--,--.--,--.--,--.--,--.--,10.0001354,76.3542895,43PFM 48437 05732,0.7,1.2,60.9,3,15,--.--,--.--,,--.--,--.--,--.--,0,0,--.--,--.--,0,-2.4,-0.6,-0.4,0,0,0,--.--,--.--,--.--,--.--,--.--,--.--,--.--,--.--,--.--,--.--,--.--,--.--,45.68,49.24,--.--,0,224,0,0,0,0,0,0,180,0,0
42:33.2,-0.6,-0.7,35,0,0,0,0,0,0.02,0,0.4,10.3,-0.02,-0.06,0,0,0,00:00:00,2.4,0,--.--,15,--.--,0,0000:00:00,0,0,0,25.04,0.13,1,--.--,99,--.--,--:--:--,1,3.26,15:42:32,10-11-2023,--.--,--.--,--.--,--.--,--.--,--.--,--.--,--.--,--.--,--.--,--.--,--.--,0,0,0,0,0,0,0,0,0,0,0,0,0,FALSE,FALSE,FALSE,FALSE,FALSE,FALSE,FALSE,FALSE,FALSE,FALSE,FALSE,FALSE,--.--,--.--,--.--,--.--,--.--,--.--,--.--,--.--,10.0001354,76.3542895,43PFM 48437 05732,0.7,1.2,60.9,3,15,--.--,--.--,,--.--,--.--,--.--,0,0,--.--,--.--,0,-2.4,-0.6,-0.4,0,0,0,--.--,--.--,--.--,--.--,--.--,--.--,--.--,--.--,--.--,--.--,--.--,--.--,45.68,49.24,--.--,0,224,0,0,0,0,0,0,180,0,0
42:34.2,-0.6,-0.7,35,0,0,0,0,0,0.011,0,0.4,10.3,-0.02,-0.01,0,0,0,00:00:00,2.4,0,--.--,15,--.--,0,0000:00:00,0,0,0,25.08,0.1,1,--.--,99,--.--,--:--:--,1,2.51,15:42:33,10-11-2023,--.--,--.--,--.--,--.--,--.--,--.--,--.--,--.--,--.--,--.--,--.--,--.--,0,0,0,0,0,0,0,0,0,0,0,0,0,FALSE,FALSE,FALSE,FALSE,FALSE,FALSE,FALSE,FALSE,FALSE,FALSE,FALSE,FALSE,--.--,--.--,--.--,--.--,--.--,--.--,--.--,--.--,10.0001356,76.3542895,43PFM 48437 05732,0.7,1.2,43.2,3,15,--.--,--.--,,--.--,--.--,--.--,0,0,--.--,--.--,0,-2.4,-0.6,-0.4,0,0,0,--.--,--.--,--.--,--.--,--.--,--.--,--.--,--.--,--.--,--.--,--.--,--.--,45.67,49.28,--.--,0,224,0,0,0,0,0,0,180,0,0
42:35.2,-0.6,-0.7,35,0,0,0,0,0,0.011,0,0.4,10.3,-0.03,-0.01,0,0,0,00:00:00,2.4,0,--.--,15,--.--,0,0000:00:00,0,0,0,25.07,0.03,1,--.--,99,--.--,--:--:--,1,0.75,15:42:34,10-11-2023,--.--,--.--,--.--,--.--,--.--,--.--,--.--,--.--,--.--,--.--,--.--,--.--,0,0,0,0,0,0,0,0,0,0,0,0,0,FALSE,FALSE,FALSE,FALSE,FALSE,FALSE,FALSE,FALSE,FALSE,FALSE,FALSE,FALSE,--.--,--.--,--.--,--.--,--.--,--.--,--.--,--.--,10.0001356,76.3542895,43PFM 48437 05732,0.7,1.2,43.2,3,15,--.--,--.--,,--.--,--.--,--.--,0,0,--.--,--.--,0,-2.3,-0.6,-0.4,0,0,0,--.--,--.--,--.--,--.--,--.--,--.--,--.--,--.--,--.--,--.--,--.--,--.--,45.67,49.28,--.--,0,224,0,0,0,0,0,0,180,0,0
42:36.2,-0.6,-0.7,35,0,0,0,0,0,0.01,0,0.4,10.3,-0.04,-0.04,0,0,0,00:00:00,2.4,0,--.--,15,--.--,0,0000:00:00,0,0,0,25.07,0.03,1,--.--,99,--.--,--:--:--,1,0.75,15:42:35,10-11-2023,--.--,--.--,--.--,--.--,--.--,--.--,--.--,--.--,--.--,--.--,--.--,--.--,0,0,0,0,0,0,0,0,0,0,0,0,0,FALSE,FALSE,FALSE,FALSE,FALSE,FALSE,FALSE,FALSE,FALSE,FALSE,FALSE,FALSE,--.--,--.--,--.--,--.--,--.--,--.--,--.--,--.--,10.0001357,76.3542894,43PFM 48437 05732,0.7,1.2,23.2,3,15,--.--,--.--,,--.--,--.--,--.--,0,0,--.--,--.--,0,-2.3,-0.6,-0.4,0,0,0,--.--,--.--,--.--,--.--,--.--,--.--,--.--,--.--,--.--,--.--,--.--,--.--,45.68,49.33,--.--,0,224,0,0,0,0,0,0,180,0,0
42:37.2,-0.6,-0.7,35,0,0,0,0,0,0.01,0,0.4,10.3,-0.06,-0.04,0,0,0,00:00:00,2.4,0,--.--,15,--.--,0,0000:00:00,0,0,0,25.05,0.02,1,--.--,99,--.--,--:--:--,1,0.5,15:42:36,10-11-2023,--.--,--.--,--.--,--.--,--.--,--.--,--.--,--.--,--.--,--.--,--.--,--.--,0,0,0,0,0,0,0,0,0,0,0,0,0,FALSE,FALSE,FALSE,FALSE,FALSE,FALSE,FALSE,FALSE,FALSE,FALSE,FALSE,FALSE,--.--,--.--,--.--,--.--,--.--,--.--,--.--,--.--,10.0001357,76.3542894,43PFM 48437 05732,0.7,1.2,23.2,3,15,--.--,--.--,,--.--,--.--,--.--,0,0,--.--,--.--,0,-2.3,-0.6,-0.4,0,0,0,--.--,--.--,--.--,--.--,--.--,--.--,--.--,--.--,--.--,--.--,--.--,--.--,45.68,49.33,--.--,0,224,0,0,0,0,0,0,180,0,0
42:38.2,-0.7,-0.7,35,0,0,0,0,0,0.018,0,0.4,10.2,-0.06,-0.06,0,0,0,00:00:00,2.4,0,--.--,16,--.--,0,0000:00:00,0,0,0,25.06,0.02,1,--.--,99,--.--,--:--:--,1,0.5,15:42:37,10-11-2023,--.--,--.--,--.--,--.--,--.--,--.--,--.--,--.--,--.--,--.--,--.--,--.--,0,0,0,0,0,0,0,0,0,0,0,0,0,FALSE,FALSE,FALSE,FALSE,FALSE,FALSE,FALSE,FALSE,FALSE,FALSE,FALSE,FALSE,--.--,--.--,--.--,--.--,--.--,--.--,--.--,--.--,10.000136,76.3542892,43PFM 48437 05732,0.8,1.3,81.6,3,14,--.--,--.--,,--.--,--.--,--.--,0,0,--.--,--.--,0,-2.3,-0.7,-0.4,0,0,0,--.--,--.--,--.--,--.--,--.--,--.--,--.--,--.--,--.--,--.--,--.--,--.--,45.68,49.37,--.--,0,224,0,0,0,0,0,0,180,0,0
42:39.3,-0.7,-0.7,35,0,0,0,0,0,0.018,0,0.4,10.3,-0.04,-0.06,0,0,0,00:00:00,2.4,0,--.--,16,--.--,0,0000:00:00,0,0,0,25.06,0.02,1,--.--,99,--.--,--:--:--,1,0.5,15:42:38,10-11-2023,--.--,--.--,--.--,--.--,--.--,--.--,--.--,--.--,--.--,--.--,--.--,--.--,0,0,0,0,0,0,0,0,0,0,0,0,0,FALSE,FALSE,FALSE,FALSE,FALSE,FALSE,FALSE,FALSE,FALSE,FALSE,FALSE,FALSE,--.--,--.--,--.--,--.--,--.--,--.--,--.--,--.--,10.000136,76.3542892,43PFM 48437 05732,0.8,1.3,81.6,3,14,--.--,--.--,,--.--,--.--,--.--,0,0,--.--,--.--,0,-2.3,-0.7,-0.4,0,0,0,--.--,--.--,--.--,--.--,--.--,--.--,--.--,--.--,--.--,--.--,--.--,--.--,45.68,49.37,--.--,0,224,0,0,0,0,0,0,180,0,0
42:40.2,-0.6,-0.7,35,0,0,0,0,0,0.019,0,0.4,10.3,-0.03,-0.04,0,0,0,00:00:00,2.4,0,--.--,16,--.--,0,0000:00:00,0,0,0,25.05,0.11,1,--.--,99,--.--,--:--:--,1,2.76,15:42:39,10-11-2023,--.--,--.--,--.--,--.--,--.--,--.--,--.--,--.--,--.--,--.--,--.--,--.--,0,0,0,0,0,0,0,0,0,0,0,0,0,FALSE,FALSE,FALSE,FALSE,FALSE,FALSE,FALSE,FALSE,FALSE,FALSE,FALSE,FALSE,--.--,--.--,--.--,--.--,--.--,--.--,--.--,--.--,10.0001361,76.3542893,43PFM 48437 05732,0.8,1.3,155,3,13,--.--,--.--,,--.--,--.--,--.--,0,0,--.--,--.--,0,-2.3,-0.7,-0.4,0,0,0,--.--,--.--,--.--,--.--,--.--,--.--,--.--,--.--,--.--,--.--,--.--,--.--,45.67,49.41,--.--,0,224,0,0,0,0,0,0,180,0,0
42:41.2,-0.6,-0.7,35,0,0,0,0,0,0.019,0,0.4,10.3,-0.02,-0.04,0,0,0,00:00:00,2.4,0,--.--,16,--.--,0,0000:00:00,0,0,0,25.03,0.18,1,--.--,99,--.--,--:--:--,1,4.51,15:42:40,10-11-2023,--.--,--.--,--.--,--.--,--.--,--.--,--.--,--.--,--.--,--.--,--.--,--.--,0,0,0,0,0,0,0,0,0,0,0,0,0,FALSE,FALSE,FALSE,FALSE,FALSE,FALSE,FALSE,FALSE,FALSE,FALSE,FALSE,FALSE,--.--,--.--,--.--,--.--,--.--,--.--,--.--,--.--,10.0001361,76.3542893,43PFM 48437 05732,0.8,1.3,155,3,13,--.--,--.--,,--.--,--.--,--.--,0,0,--.--,--.--,0,-2.3,-0.7,-0.4,0,0,0,--.--,--.--,--.--,--.--,--.--,--.--,--.--,--.--,--.--,--.--,--.--,--.--,45.67,49.41,--.--,0,224,0,0,0,0,0,0,180,0,0
42:42.2,-0.6,-0.7,35,0,0,0,0,0,0.016,0,0.4,10.3,-0.01,-0.01,0,0,0,00:00:00,2.4,0,--.--,16,--.--,0,0000:00:00,0,0,0,25.03,0.18,1,--.--,99,--.--,--:--:--,1,4.51,15:42:41,10-11-2023,--.--,--.--,--.--,--.--,--.--,--.--,--.--,--.--,--.--,--.--,--.--,--.--,0,0,0,0,0,0,0,0,0,0,0,0,0,FALSE,FALSE,FALSE,FALSE,FALSE,FALSE,FALSE,FALSE,FALSE,FALSE,FALSE,FALSE,--.--,--.--,--.--,--.--,--.--,--.--,--.--,--.--,10.000136,76.3542892,43PFM 48437 05732,0.8,1.3,282.1,3,13,--.--,--.--,,--.--,--.--,--.--,0,0,--.--,--.--,0,-2.3,-0.7,-0.4,0,0,0,--.--,--.--,--.--,--.--,--.--,--.--,--.--,--.--,--.--,--.--,--.--,--.--,45.65,49.45,--.--,0,224,0,0,0,0,0,0,180,0,0
42:43.2,-0.7,-0.6,35,0,0,0,0,0,0.016,0,0.4,10.3,0,-0.01,0,0,0,00:00:00,2.4,0,--.--,17,--.--,0,0000:00:00,0,0,0,25.06,0.02,1,--.--,99,--.--,--:--:--,1,0.5,15:42:42,10-11-2023,--.--,--.--,--.--,--.--,--.--,--.--,--.--,--.--,--.--,--.--,--.--,--.--,0,0,0,0,0,0,0,0,0,0,0,0,0,FALSE,FALSE,FALSE,FALSE,FALSE,FALSE,FALSE,FALSE,FALSE,FALSE,FALSE,FALSE,--.--,--.--,--.--,--.--,--.--,--.--,--.--,--.--,10.000136,76.3542892,43PFM 48437 05732,0.8,1.3,282.1,3,13,--.--,--.--,,--.--,--.--,--.--,0,0,--.--,--.--,0,-2.3,-0.7,-0.4,0,0,0,--.--,--.--,--.--,--.--,--.--,--.--,--.--,--.--,--.--,--.--,--.--,--.--,45.65,49.45,--.--,0,224,0,0,0,0,0,0,180,0,0
42:44.2,-0.6,-0.6,35,0,0,0,0,0,0.013,0,0.4,10.3,-0.01,0,0,0,0,00:00:00,2.4,0,--.--,17,--.--,0,0000:00:00,0,0,0,25.06,0.02,1,--.--,99,--.--,--:--:--,1,0.5,15:42:43,10-11-2023,--.--,--.--,--.--,--.--,--.--,--.--,--.--,--.--,--.--,--.--,--.--,--.--,0,0,0,0,0,0,0,0,0,0,0,0,0,FALSE,FALSE,FALSE,FALSE,FALSE,FALSE,FALSE,FALSE,FALSE,FALSE,FALSE,FALSE,--.--,--.--,--.--,--.--,--.--,--.--,--.--,--.--,10.0001359,76.3542891,43PFM 48437 05732,0.8,1.3,129.3,3,13,--.--,--.--,,--.--,--.--,--.--,0,0,--.--,--.--,0,-2.3,-0.7,-0.4,0,0,0,--.--,--.--,--.--,--.--,--.--,--.--,--.--,--.--,--.--,--.--,--.--,--.--,45.66,49.49,--.--,0,224,0,0,0,0,0,0,180,0,0
42:45.2,-0.6,-0.6,35,0,0,0,0,0,0.013,0,0.4,10.3,0.02,0,0,0,0,00:00:00,2.4,0,--.--,17,--.--,0,0000:00:00,0,0,0,25.06,0.03,1,--.--,99,--.--,--:--:--,1,0.75,15:42:44,10-11-2023,--.--,--.--,--.--,--.--,--.--,--.--,--.--,--.--,--.--,--.--,--.--,--.--,0,0,0,0,0,0,0,0,0,0,0,0,0,FALSE,FALSE,FALSE,FALSE,FALSE,FALSE,FALSE,FALSE,FALSE,FALSE,FALSE,FALSE,--.--,--.--,--.--,--.--,--.--,--.--,--.--,--.--,10.0001359,76.3542891,43PFM 48437 05732,0.8,1.3,129.3,3,13,--.--,--.--,,--.--,--.--,--.--,0,0,--.--,--.--,0,-2.3,-0.7,-0.4,0,0,0,--.--,--.--,--.--,--.--,--.--,--.--,--.--,--.--,--.--,--.--,--.--,--.--,45.66,49.49,--.--,0,224,0,0,0,0,0,0,180,0,0
42:46.2,-0.7,-0.7,35,0,0,0,0,0,0.02,0,0.4,10.3,0.02,0.02,0,0,0,00:00:00,2.4,0,--.--,17,--.--,0,0000:00:00,0,0,0,25.05,0.02,1,--.--,99,--.--,--:--:--,1,0.5,15:42:45,10-11-2023,--.--,--.--,--.--,--.--,--.--,--.--,--.--,--.--,--.--,--.--,--.--,--.--,0,0,0,0,0,0,0,0,0,0,0,0,0,FALSE,FALSE,FALSE,FALSE,FALSE,FALSE,FALSE,FALSE,FALSE,FALSE,FALSE,FALSE,--.--,--.--,--.--,--.--,--.--,--.--,--.--,--.--,10.000136,76.3542888,43PFM 48436 05732,0.8,1.5,318.7,3,12,--.--,--.--,,--.--,--.--,--.--,0,0,--.--,--.--,0,-2.3,-0.7,-0.4,0,0,0,--.--,--.--,--.--,--.--,--.--,--.--,--.--,--.--,--.--,--.--,--.--,--.--,45.66,49.52,--.--,0,224,0,0,0,0,0,0,180,0,0
42:47.3,-0.7,-0.7,35,0,0,0,0,0,0.019,0,0.4,10.3,0.02,0.02,0,0,0,00:00:00,2.4,0,--.--,17,--.--,0,0000:00:00,0,0,0,25.02,0.25,1,--.--,99,--.--,--:--:--,1,6.26,15:42:46,10-11-2023,--.--,--.--,--.--,--.--,--.--,--.--,--.--,--.--,--.--,--.--,--.--,--.--,0,0,0,0,0,0,0,0,0,0,0,0,0,FALSE,FALSE,FALSE,FALSE,FALSE,FALSE,FALSE,FALSE,FALSE,FALSE,FALSE,FALSE,--.--,--.--,--.--,--.--,--.--,--.--,--.--,--.--,10.0001361,76.3542886,43PFM 48436 05732,0.8,1.5,16.6,3,12,--.--,--.--,,--.--,--.--,--.--,0,0,--.--,--.--,0,-2.3,-0.7,-0.4,0,0,0,--.--,--.--,--.--,--.--,--.--,--.--,--.--,--.--,--.--,--.--,--.--,--.--,45.66,49.54,--.--,0,224,0.1,0.1,0.2,0,0,0,180,0,0
42:48.3,-0.7,-0.7,35,0,0,0,0,0,0.032,0,0.5,10.3,0.05,0.04,0,0,0,00:00:00,2.4,0,--.--,17,--.--,0,0000:00:00,0,0,0,25.05,0.02,1,--.--,99,--.--,--:--:--,1,0.5,15:42:47,10-11-2023,--.--,--.--,--.--,--.--,--.--,--.--,--.--,--.--,--.--,--.--,--.--,--.--,0,0,0,0,0,0,0,0,0,0,0,0,0,FALSE,FALSE,FALSE,FALSE,FALSE,FALSE,FALSE,FALSE,FALSE,FALSE,FALSE,FALSE,--.--,--.--,--.--,--.--,--.--,--.--,--.--,--.--,10.0001357,76.3542883,43PFM 48436 05732,0.8,1.5,276.6,3,12,--.--,--.--,,--.--,--.--,--.--,0,0,--.--,--.--,0,-2.3,-0.7,-0.5,0,0,0,--.--,--.--,--.--,--.--,--.--,--.--,--.--,--.--,--.--,--.--,--.--,--.--,45.66,49.57,--.--,0,224,0.1,0.1,0.1,0,0,0,180,0,0
42:49.3,-0.7,-0.7,35,0,0,0,0,0,0.035,0,0.5,10.4,0.07,0.05,0,0,0,00:00:00,2.4,0,--.--,18,--.--,0,0000:00:00,0,0,0,25.05,0.18,1,--.--,99,--.--,--:--:--,1,4.51,15:42:48,10-11-2023,--.--,--.--,--.--,--.--,--.--,--.--,--.--,--.--,--.--,--.--,--.--,--.--,0,0,0,0,0,0,0,0,0,0,0,0,0,FALSE,FALSE,FALSE,FALSE,FALSE,FALSE,FALSE,FALSE,FALSE,FALSE,FALSE,FALSE,--.--,--.--,--.--,--.--,--.--,--.--,--.--,--.--,10.0001357,76.3542882,43PFM 48436 05732,0.8,1.5,179.4,3,12,--.--,--.--,,--.--,--.--,--.--,0,0,--.--,--.--,0,-2.3,-0.7,-0.5,0,0,0,--.--,--.--,--.--,--.--,--.--,--.--,--.--,--.--,--.--,--.--,--.--,--.--,45.65,49.58,--.--,0,224,0,0,0,0,0,0,180,0,0
42:50.3,-0.7,-0.7,35,0,0,0,0,0.1,0.049,0,0.5,10.4,0.11,0.09,0,0,0,00:00:00,2.5,0,--.--,18,--.--,0,0000:00:00,0,0,0,25,0.01,1,--.--,99,--.--,--:--:--,1,0.25,15:42:49,10-11-2023,--.--,--.--,--.--,--.--,--.--,--.--,--.--,--.--,--.--,--.--,--.--,--.--,0,0,0,0,0,0,0,0,0,0,0,0,0,FALSE,FALSE,FALSE,FALSE,FALSE,FALSE,FALSE,FALSE,FALSE,FALSE,FALSE,FALSE,--.--,--.--,--.--,--.--,--.--,--.--,--.--,--.--,10.0001355,76.3542878,43PFM 48436 05732,0.8,1.3,90,3,13,--.--,--.--,,--.--,--.--,--.--,0,0,--.--,--.--,0,-2.4,-0.8,-0.5,0,0,0,--.--,--.--,--.--,--.--,--.--,--.--,--.--,--.--,--.--,--.--,--.--,--.--,45.65,49.59,--.--,0,224,0,0,0,0,0,0,180,0,0
42:51.3,-0.7,-0.7,35,0,0,0,0,0.1,0.056,0.1,0.5,10.4,0.13,0.12,0,0,0,00:00:00,2.5,0,--.--,19,--.--,0,0000:00:00,0,0,0,25.02,0.02,1,--.--,99,--.--,--:--:--,1,0.5,15:42:50,10-11-2023,--.--,--.--,--.--,--.--,--.--,--.--,--.--,--.--,--.--,--.--,--.--,--.--,0,0,0,0,0,0,0,0,0,0,0,0,0,FALSE,FALSE,FALSE,FALSE,FALSE,FALSE,FALSE,FALSE,FALSE,FALSE,FALSE,FALSE,--.--,--.--,--.--,--.--,--.--,--.--,--.--,--.--,10.0001359,76.3542876,43PFM 48436 05732,0.8,1.3,253.5,3,13,--.--,--.--,,--.--,--.--,--.--,0,0,--.--,--.--,0,-2.3,-0.8,-0.5,0,0,-0.1,--.--,--.--,--.--,--.--,--.--,--.--,--.--,--.--,--.--,--.--,--.--,--.--,45.65,49.61,--.--,0,224,0,0,0,0,0,0,180,0,0
42:52.3,-0.7,-0.7,35,0,0,0,0,0.1,0.057,0.1,0.6,10.4,0.14,0.14,0,0,0,00:00:00,2.4,0,--.--,20,--.--,0,0000:00:00,0,0,0,24.98,0.23,1,--.--,99,--.--,--:--:--,1,5.75,15:42:51,10-11-2023,--.--,--.--,--.--,--.--,--.--,--.--,--.--,--.--,--.--,--.--,--.--,--.--,0,0,0,0,0,0,0,0,0,0,0,0,0,FALSE,FALSE,FALSE,FALSE,FALSE,FALSE,FALSE,FALSE,FALSE,FALSE,FALSE,FALSE,--.--,--.--,--.--,--.--,--.--,--.--,--.--,--.--,10.0001363,76.3542876,43PFM 48436 05732,0.8,1.3,85,3,13,--.--,--.--,,--.--,--.--,--.--,0,0,--.--,--.--,0,-2.3,-0.8,-0.6,0,0,-0.1,--.--,--.--,--.--,--.--,--.--,--.--,--.--,--.--,--.--,--.--,--.--,--.--,45.65,49.62,--.--,0,224,0,0,0,0,0,0,180,0,0
42:53.3,-0.6,-0.7,35,0,0,0,0,0,0.054,0,0.5,10.4,0.12,0.14,0,0,0,00:00:00,2.4,0,--.--,20,--.--,0,0000:00:00,0,0,0,25.07,0.03,1,--.--,99,--.--,--:--:--,1,0.75,15:42:52,10-11-2023,--.--,--.--,--.--,--.--,--.--,--.--,--.--,--.--,--.--,--.--,--.--,--.--,0,0,0,0,0,0,0,0,0,0,0,0,0,FALSE,FALSE,FALSE,FALSE,FALSE,FALSE,FALSE,FALSE,FALSE,FALSE,FALSE,FALSE,--.--,--.--,--.--,--.--,--.--,--.--,--.--,--.--,10.0001363,76.3542875,43PFM 48436 05732,0.8,1.3,121.6,3,13,--.--,--.--,,--.--,--.--,--.--,0,0,--.--,--.--,0,-2.3,-0.8,-0.5,0,0,0,--.--,--.--,--.--,--.--,--.--,--.--,--.--,--.--,--.--,--.--,--.--,--.--,45.65,49.63,--.--,0,224,0,0,0,0,0,0,180,0,0
42:54.3,-0.6,-0.7,35,0,0,0,0,0,0.04,0,0.5,10.4,0.07,0.09,0,0,0,00:00:00,2.4,0,--.--,20,--.--,0,0001:37:10,0,0,0,24.99,0.01,1,--.--,99,--.--,--:--:--,1,0.25,15:42:53,10-11-2023,--.--,--.--,--.--,--.--,--.--,--.--,--.--,--.--,--.--,--.--,--.--,--.--,0,0,0,0,0,0,0,0,0,0,0,0,0,FALSE,FALSE,FALSE,FALSE,FALSE,FALSE,FALSE,FALSE,FALSE,FALSE,FALSE,FALSE,--.--,--.--,--.--,--.--,--.--,--.--,--.--,--.--,10.0001366,76.3542874,43PFM 48436 05732,0.8,1.3,245.7,3,13,--.--,--.--,,--.--,--.--,--.--,0,0,--.--,--.--,0,-2.3,-0.8,-0.5,0,0,0,--.--,--.--,--.--,--.--,--.--,--.--,--.--,--.--,--.--,--.--,--.--,--.--,45.66,49.67,--.--,0,224,0,0,0,0,0,0,180,0,0
42:55.3,-0.6,-0.7,35,0,0,0,0,0,0.02,0,0.4,10.3,0,0,0,0,0,00:00:00,2.4,0,--.--,21,--.--,0,0001:37:10,0,0,0,24.98,0,1,--.--,99,--.--,--:--:--,1,0,15:42:54,10-11-2023,--.--,--.--,--.--,--.--,--.--,--.--,--.--,--.--,--.--,--.--,--.--,--.--,0,0,0,0,0,0,0,0,0,0,0,0,0,FALSE,FALSE,FALSE,FALSE,FALSE,FALSE,FALSE,FALSE,FALSE,FALSE,FALSE,FALSE,--.--,--.--,--.--,--.--,--.--,--.--,--.--,--.--,10.0001368,76.354287,43PFM 48436 05732,0.8,1.3,252.1,3,13,--.--,--.--,,--.--,--.--,--.--,0,0,--.--,--.--,0,-2.2,-0.9,-0.4,0,0,0,--.--,--.--,--.--,--.--,--.--,--.--,--.--,--.--,--.--,--.--,--.--,--.--,45.66,49.7,--.--,0,224,0,0,0,0,0,0,180,0,0
42:56.3,-0.6,-0.7,35,0,0,0,0,0,0.017,0,0.4,10.3,-0.03,-0.03,0,0,0,00:00:00,2.4,0,--.--,22,--.--,0,0001:37:10,0,0,0,25.05,0.02,1,--.--,99,--.--,--:--:--,1,0.5,15:42:55,10-11-2023,--.--,--.--,--.--,--.--,--.--,--.--,--.--,--.--,--.--,--.--,--.--,--.--,0,0,0,0,0,0,0,0,0,0,0,0,0,FALSE,FALSE,FALSE,FALSE,FALSE,FALSE,FALSE,FALSE,FALSE,FALSE,FALSE,FALSE,--.--,--.--,--.--,--.--,--.--,--.--,--.--,--.--,10.0001368,76.3542868,43PFM 48436 05732,0.8,1.3,23.4,3,13,--.--,--.--,,--.--,--.--,--.--,0,0,--.--,--.--,0,-2.2,-0.9,-0.4,0,0,0,--.--,--.--,--.--,--.--,--.--,--.--,--.--,--.--,--.--,--.--,--.--,--.--,45.66,49.72,--.--,0,224,0,0,0,0,0,0,180,0,0
42:57.3,-0.6,-0.7,35,0,0,0,0,0,0.014,0,0.4,10.2,-0.06,-0.05,0,0,0,00:00:00,2.4,0,--.--,22,--.--,0,0001:37:10,0,0,0,25.05,0.03,1,--.--,99,--.--,--:--:--,1,0.75,15:42:56,10-11-2023,--.--,--.--,--.--,--.--,--.--,--.--,--.--,--.--,--.--,--.--,--.--,--.--,0,0,0,0,0,0,0,0,0,0,0,0,0,FALSE,FALSE,FALSE,FALSE,FALSE,FALSE,FALSE,FALSE,FALSE,FALSE,FALSE,FALSE,--.--,--.--,--.--,--.--,--.--,--.--,--.--,--.--,10.0001368,76.3542865,43PFM 48436 05732,0.8,1.3,281.9,3,13,--.--,--.--,,--.--,--.--,--.--,0,0,--.--,--.--,0,-2.2,-0.9,-0.4,0,0,0,--.--,--.--,--.--,--.--,--.--,--.--,--.--,--.--,--.--,--.--,--.--,--.--,45.66,49.74,--.--,0,224,0,0,0,0,0,0,180,0,0
42:58.3,-0.7,-0.7,35,0,0,0,0,0,0.011,0,0.3,10.2,-0.1,-0.08,0,0,0,00:00:00,2.4,0,--.--,23,--.--,0,0001:37:10,0,0,0,25.06,0.02,1,--.--,99,--.--,--:--:--,1,0.5,15:42:57,10-11-2023,--.--,--.--,--.--,--.--,--.--,--.--,--.--,--.--,--.--,--.--,--.--,--.--,0,0,0,0,0,0,0,0,0,0,0,0,0,FALSE,FALSE,FALSE,FALSE,FALSE,FALSE,FALSE,FALSE,FALSE,FALSE,FALSE,FALSE,--.--,--.--,--.--,--.--,--.--,--.--,--.--,--.--,10.0001368,76.3542861,43PFM 48436 05732,0.8,1.3,0,3,13,--.--,--.--,,--.--,--.--,--.--,0,0,--.--,--.--,0,-2.2,-0.9,-0.3,0,0,0,--.--,--.--,--.--,--.--,--.--,--.--,--.--,--.--,--.--,--.--,--.--,--.--,45.67,49.77,--.--,0,224,0,0,0,0,0,0,180,0,0
42:59.3,-0.6,-0.7,35,0,0,0,0,0,0.011,0,0.3,10.2,-0.12,-0.12,0,0,0,00:00:00,2.4,0,--.--,24,--.--,0,0001:37:10,0,0,0,25,0.01,1,--.--,99,--.--,--:--:--,1,0.25,15:42:58,10-11-2023,--.--,--.--,--.--,--.--,--.--,--.--,--.--,--.--,--.--,--.--,--.--,--.--,0,0,0,0,0,0,0,0,0,0,0,0,0,FALSE,FALSE,FALSE,FALSE,FALSE,FALSE,FALSE,FALSE,FALSE,FALSE,FALSE,FALSE,--.--,--.--,--.--,--.--,--.--,--.--,--.--,--.--,10.0001367,76.3542861,43PFM 48436 05732,0.7,1.2,6.8,3,14,--.--,--.--,,--.--,--.--,--.--,0,0,--.--,--.--,0,-2.2,-1,-0.3,0,0,0,--.--,--.--,--.--,--.--,--.--,--.--,--.--,--.--,--.--,--.--,--.--,--.--,45.67,49.8,--.--,0,224,0,0,0,0,0,0,180,0,0
43:00.3,-0.6,-0.7,35,0,0,0,0,0,0.007,0,0.3,10.2,-0.12,-0.13,0,0,0,00:00:00,2.4,0,--.--,24,--.--,0,0001:37:10,0,0,0,25.05,0.02,1,--.--,99,--.--,--:--:--,1,0.5,15:42:59,10-11-2023,--.--,--.--,--.--,--.--,--.--,--.--,--.--,--.--,--.--,--.--,--.--,--.--,0,0,0,0,0,0,0,0,0,0,0,0,0,FALSE,FALSE,FALSE,FALSE,FALSE,FALSE,FALSE,FALSE,FALSE,FALSE,FALSE,FALSE,--.--,--.--,--.--,--.--,--.--,--.--,--.--,--.--,10.0001367,76.3542862,43PFM 48436 05732,0.7,1.2,93.4,3,14,--.--,--.--,,--.--,--.--,--.--,0,0,--.--,--.--,0,-2.2,-1,-0.3,0,0,0,--.--,--.--,--.--,--.--,--.--,--.--,--.--,--.--,--.--,--.--,--.--,--.--,45.67,49.84,--.--,0,224,0,0,0,0,0,0,180,0,0
43:01.3,-0.6,-0.7,35,0,0,0,0,0,0.014,0,0.3,10.2,-0.12,-0.12,0,0,0,00:00:00,2.4,0,--.--,24,--.--,0,0001:37:10,0,0,0,25.04,0.02,1,--.--,99,--.--,--:--:--,1,0.5,15:43:00,10-11-2023,--.--,--.--,--.--,--.--,--.--,--.--,--.--,--.--,--.--,--.--,--.--,--.--,0,0,0,0,0,0,0,0,0,0,0,0,0,FALSE,FALSE,FALSE,FALSE,FALSE,FALSE,FALSE,FALSE,FALSE,FALSE,FALSE,FALSE,--.--,--.--,--.--,--.--,--.--,--.--,--.--,--.--,10.0001367,76.3542862,43PFM 48436 05732,0.8,1.3,72.7,3,13,--.--,--.--,,--.--,--.--,--.--,0,0,--.--,--.--,0,-2.2,-1,-0.3,0,0,0,--.--,--.--,--.--,--.--,--.--,--.--,--.--,--.--,--.--,--.--,--.--,--.--,45.66,49.87,--.--,0,224,0,0,0,0,0,0,180,0,0
43:02.3,-0.6,-0.7,35,0,0,0,0,0,0.02,0,0.3,10.2,-0.11,-0.11,0,0,0,00:00:00,2.4,0,--.--,24,--.--,0,0001:37:10,0,0,0,25,0.02,1,--.--,99,--.--,--:--:--,1,0.5,15:43:01,10-11-2023,--.--,--.--,--.--,--.--,--.--,--.--,--.--,--.--,--.--,--.--,--.--,--.--,0,0,0,0,0,0,0,0,0,0,0,0,0,FALSE,FALSE,FALSE,FALSE,FALSE,FALSE,FALSE,FALSE,FALSE,FALSE,FALSE,FALSE,--.--,--.--,--.--,--.--,--.--,--.--,--.--,--.--,10.0001368,76.3542862,43PFM 48436 05732,0.8,1.3,266.2,3,13,--.--,--.--,,--.--,--.--,--.--,0,0,--.--,--.--,0,-2.2,-1,-0.3,0,0,0,--.--,--.--,--.--,--.--,--.--,--.--,--.--,--.--,--.--,--.--,--.--,--.--,45.66,49.88,--.--,0,224,0,0,0,0,0,0,180,0,0
43:03.3,-0.6,-0.7,35,0,0,0,0,0,0.016,0,0.3,10.2,-0.14,-0.14,0,0,0,00:00:00,2.4,0,--.--,24,--.--,0,0001:37:10,0,0,0,25.05,0.02,1,--.--,99,--.--,--:--:--,1,0.5,15:43:02,10-11-2023,--.--,--.--,--.--,--.--,--.--,--.--,--.--,--.--,--.--,--.--,--.--,--.--,0,0,0,0,0,0,0,0,0,0,0,0,0,FALSE,FALSE,FALSE,FALSE,FALSE,FALSE,FALSE,FALSE,FALSE,FALSE,FALSE,FALSE,--.--,--.--,--.--,--.--,--.--,--.--,--.--,--.--,10.0001369,76.354286,43PFM 48436 05732,0.8,1.3,311.6,3,13,--.--,--.--,,--.--,--.--,--.--,0,0,--.--,--.--,0,-2.2,-1,-0.3,0,0,0,--.--,--.--,--.--,--.--,--.--,--.--,--.--,--.--,--.--,--.--,--.--,--.--,45.66,49.91,--.--,0,224,0,0,0,0,0,0,180,0,0
43:04.3,-0.6,-0.7,35,0,0,0,0,0,0.021,0,0.3,10.2,-0.13,-0.13,0,0,0,00:00:00,2.4,0,--.--,25,--.--,0,0001:37:10,0,0,0,25.05,0.01,1,--.--,99,--.--,--:--:--,1,0.25,15:43:03,10-11-2023,--.--,--.--,--.--,--.--,--.--,--.--,--.--,--.--,--.--,--.--,--.--,--.--,0,0,0,0,0,0,0,0,0,0,0,0,0,FALSE,FALSE,FALSE,FALSE,FALSE,FALSE,FALSE,FALSE,FALSE,FALSE,FALSE,FALSE,--.--,--.--,--.--,--.--,--.--,--.--,--.--,--.--,10.0001372,76.3542857,43PFM 48436 05732,0.8,1.3,143.6,3,13,--.--,--.--,,--.--,--.--,--.--,0,0,--.--,--.--,0,-2.1,-1,-0.3,0,0,0,--.--,--.--,--.--,--.--,--.--,--.--,--.--,--.--,--.--,--.--,--.--,--.--,45.66,49.95,--.--,0,224,0,0,0,0,0,0,180,0,0
43:05.3,-0.6,-0.7,35,0,0,0,0,0,0.017,0,0.3,10.2,-0.15,-0.15,0,0,0,00:00:00,2.4,0,--.--,25,--.--,0,0001:37:10,0,0,0,24.98,0.01,1,--.--,99,--.--,--:--:--,1,0.25,15:43:04,10-11-2023,--.--,--.--,--.--,--.--,--.--,--.--,--.--,--.--,--.--,--.--,--.--,--.--,0,0,0,0,0,0,0,0,0,0,0,0,0,FALSE,FALSE,FALSE,FALSE,FALSE,FALSE,FALSE,FALSE,FALSE,FALSE,FALSE,FALSE,--.--,--.--,--.--,--.--,--.--,--.--,--.--,--.--,10.0001373,76.3542857,43PFM 48436 05732,0.8,1.3,336.4,3,13,--.--,--.--,,--.--,--.--,--.--,0,0,--.--,--.--,0,-2.1,-1,-0.3,0,0,0,--.--,--.--,--.--,--.--,--.--,--.--,--.--,--.--,--.--,--.--,--.--,--.--,45.67,49.96,--.--,0,224,0,0,0,0,0,0,180,0,0
43:06.3,-0.6,-0.7,35,0,0,0,0,0,0.019,0,0.3,10.2,-0.14,-0.15,0,0,0,00:00:00,2.4,0,--.--,26,--.--,0,0001:37:10,0,0,0,25.01,0.01,1,--.--,99,--.--,--:--:--,1,0.25,15:43:05,10-11-2023,--.--,--.--,--.--,--.--,--.--,--.--,--.--,--.--,--.--,--.--,--.--,--.--,0,0,0,0,0,0,0,0,0,0,0,0,0,FALSE,FALSE,FALSE,FALSE,FALSE,FALSE,FALSE,FALSE,FALSE,FALSE,FALSE,FALSE,--.--,--.--,--.--,--.--,--.--,--.--,--.--,--.--,10.0001374,76.3542855,43PFM 48436 05732,0.8,1.3,215.5,3,13,--.--,--.--,,--.--,--.--,--.--,0,0,--.--,--.--,0,-2.1,-1,-0.3,0,0,0,--.--,--.--,--.--,--.--,--.--,--.--,--.--,--.--,--.--,--.--,--.--,--.--,45.66,49.98,--.--,0,224,0,0,0,0,0,0,180,0,0
43:07.3,-0.6,-0.7,35,0,0,0,0,0,0.012,0,0.3,10.2,-0.15,-0.14,0,0,0,00:00:00,2.4,0,--.--,26,--.--,0,0001:37:10,0,0,0,25.04,0.02,1,--.--,99,--.--,--:--:--,1,0.5,15:43:06,10-11-2023,--.--,--.--,--.--,--.--,--.--,--.--,--.--,--.--,--.--,--.--,--.--,--.--,0,0,0,0,0,0,0,0,0,0,0,0,0,FALSE,FALSE,FALSE,FALSE,FALSE,FALSE,FALSE,FALSE,FALSE,FALSE,FALSE,FALSE,--.--,--.--,--.--,--.--,--.--,--.--,--.--,--.--,10.0001373,76.3542854,43PFM 48436 05732,0.8,1.3,254.5,3,13,--.--,--.--,,--.--,--.--,--.--,0,0,--.--,--.--,0,-2.1,-1.1,-0.3,0,0,0,--.--,--.--,--.--,--.--,--.--,--.--,--.--,--.--,--.--,--.--,--.--,--.--,45.65,50.01,--.--,0,224,0,0,0,0,0,0,180,0,0
43:08.3,-0.6,-0.7,35,0,0,0,0,0,0.012,0,0.3,10.2,-0.12,-0.13,0,0,0,00:00:00,2.4,0,--.--,26,--.--,0,0001:37:10,0,0,0,25.01,0.01,1,--.--,99,--.--,--:--:--,1,0.25,15:43:07,10-11-2023,--.--,--.--,--.--,--.--,--.--,--.--,--.--,--.--,--.--,--.--,--.--,--.--,0,0,0,0,0,0,0,0,0,0,0,0,0,FALSE,FALSE,FALSE,FALSE,FALSE,FALSE,FALSE,FALSE,FALSE,FALSE,FALSE,FALSE,--.--,--.--,--.--,--.--,--.--,--.--,--.--,--.--,10.0001373,76.3542854,43PFM 48436 05732,0.8,1.3,267,3,13,--.--,--.--,,--.--,--.--,--.--,0,0,--.--,--.--,0,-2.1,-1.1,-0.3,0,0,0,--.--,--.--,--.--,--.--,--.--,--.--,--.--,--.--,--.--,--.--,--.--,--.--,45.65,50.04,--.--,0,224,0,0,0,0,0,0,180,0,0
43:09.3,-0.6,-0.6,35,0,0,0,0,0,0.018,0,0.3,10.2,-0.12,-0.11,0,0,0,00:00:00,2.4,0,--.--,26,--.--,0,0001:37:10,0,0,0,25.05,0.02,1,--.--,99,--.--,--:--:--,1,0.5,15:43:08,10-11-2023,--.--,--.--,--.--,--.--,--.--,--.--,--.--,--.--,--.--,--.--,--.--,--.--,0,0,0,0,0,0,0,0,0,0,0,0,0,FALSE,FALSE,FALSE,FALSE,FALSE,FALSE,FALSE,FALSE,FALSE,FALSE,FALSE,FALSE,--.--,--.--,--.--,--.--,--.--,--.--,--.--,--.--,10.0001371,76.3542853,43PFM 48436 05732,0.8,1.3,59.3,3,13,--.--,--.--,,--.--,--.--,--.--,0,0,--.--,--.--,0,-2.2,-1.1,-0.3,0,0,0,--.--,--.--,--.--,--.--,--.--,--.--,--.--,--.--,--.--,--.--,--.--,--.--,45.66,50.06,--.--,0,224,0,0,0,0,0,0,180,0,0
43:10.3,-0.6,-0.7,35,0,0,0,0,0,0.01,0,0.3,10.2,-0.14,-0.14,0,0,0,00:00:00,2.4,0,--.--,27,--.--,0,0001:37:10,0,0,0,24.98,0,1,--.--,99,--.--,--:--:--,1,0,15:43:09,10-11-2023,--.--,--.--,--.--,--.--,--.--,--.--,--.--,--.--,--.--,--.--,--.--,--.--,0,0,0,0,0,0,0,0,0,0,0,0,0,FALSE,FALSE,FALSE,FALSE,FALSE,FALSE,FALSE,FALSE,FALSE,FALSE,FALSE,FALSE,--.--,--.--,--.--,--.--,--.--,--.--,--.--,--.--,10.000137,76.3542852,43PFM 48436 05732,0.8,1.3,125.8,3,13,--.--,--.--,,--.--,--.--,--.--,0,0,--.--,--.--,0,-2.2,-1.1,-0.3,0,0,0,--.--,--.--,--.--,--.--,--.--,--.--,--.--,--.--,--.--,--.--,--.--,--.--,45.66,50.1,--.--,0,224,0,0,0,0,0,0,180,0,0
43:11.3,-0.6,-0.7,35,0,0,0,0,0,0.009,0,0.3,10.2,-0.14,-0.14,0,0,0,00:00:00,2.4,0,--.--,26,--.--,0,0001:37:10,0,0,0,25.02,0.01,2,--.--,99,--.--,--:--:--,1,0.25,15:43:10,10-11-2023,--.--,--.--,--.--,--.--,--.--,--.--,--.--,--.--,--.--,--.--,--.--,--.--,0,0,0,0,0,0,0,0,0,0,0,0,0,FALSE,FALSE,FALSE,FALSE,FALSE,FALSE,FALSE,FALSE,FALSE,FALSE,FALSE,FALSE,--.--,--.--,--.--,--.--,--.--,--.--,--.--,--.--,10.0001369,76.3542852,43PFM 48436 05732,0.7,1.2,113.5,3,14,--.--,--.--,,--.--,--.--,--.--,0,0,--.--,--.--,0,-2.2,-1.1,-0.3,0,0,0,--.--,--.--,--.--,--.--,--.--,--.--,--.--,--.--,--.--,--.--,--.--,--.--,45.66,50.11,--.--,0,224,0,0,0,0,0,0,180,0,0
43:12.3,-0.6,-0.7,35,0,0,0,0,0,0.015,0,0.3,10.2,-0.14,-0.14,0,0,0,00:00:00,2.4,0,--.--,27,--.--,0,0001:37:10,0,0,0,25.08,0.03,2,--.--,99,--.--,--:--:--,1,0.75,15:43:11,10-11-2023,--.--,--.--,--.--,--.--,--.--,--.--,--.--,--.--,--.--,--.--,--.--,--.--,0,0,0,0,0,0,0,0,0,0,0,0,0,FALSE,FALSE,FALSE,FALSE,FALSE,FALSE,FALSE,FALSE,FALSE,FALSE,FALSE,FALSE,--.--,--.--,--.--,--.--,--.--,--.--,--.--,--.--,10.0001367,76.3542851,43PFM 48436 05732,0.7,1.2,21.8,3,14,--.--,--.--,,--.--,--.--,--.--,0,0,--.--,--.--,0,-2.2,-1.1,-0.3,0,0,0,--.--,--.--,--.--,--.--,--.--,--.--,--.--,--.--,--.--,--.--,--.--,--.--,45.66,50.14,--.--,0,224,0,0,0,0,0,0,180,0,0
43:13.3,-0.6,-0.6,35,0,0,0,0,0,0.012,0,0.3,10.2,-0.13,-0.13,0,0,0,00:00:00,2.4,0,--.--,27,--.--,0,0001:37:10,0,0,0,25.04,0.02,2,--.--,99,--.--,--:--:--,1,0.5,15:43:12,10-11-2023,--.--,--.--,--.--,--.--,--.--,--.--,--.--,--.--,--.--,--.--,--.--,--.--,0,0,0,0,0,0,0,0,0,0,0,0,0,FALSE,FALSE,FALSE,FALSE,FALSE,FALSE,FALSE,FALSE,FALSE,FALSE,FALSE,FALSE,--.--,--.--,--.--,--.--,--.--,--.--,--.--,--.--,10.0001364,76.3542849,43PFM 48436 05732,0.7,1.2,234.2,3,14,--.--,--.--,,--.--,--.--,--.--,0,0,--.--,--.--,0,-2.2,-1.1,-0.3,0,0,0,--.--,--.--,--.--,--.--,--.--,--.--,--.--,--.--,--.--,--.--,--.--,--.--,45.66,50.17,--.--,0,224,0,0,0,0,0,0,180,0,0
43:14.3,-0.6,-0.6,35,0,0,0,0,0,0.016,0,0.3,10.2,-0.1,-0.12,0,0,0,00:00:00,2.5,0,--.--,27,--.--,0,0001:37:10,0,0,0,25.05,0.02,2,--.--,99,--.--,--:--:--,1,0.5,15:43:13,10-11-2023,--.--,--.--,--.--,--.--,--.--,--.--,--.--,--.--,--.--,--.--,--.--,--.--,0,0,0,0,0,0,0,0,0,0,0,0,0,FALSE,FALSE,FALSE,FALSE,FALSE,FALSE,FALSE,FALSE,FALSE,FALSE,FALSE,FALSE,--.--,--.--,--.--,--.--,--.--,--.--,--.--,--.--,10.0001362,76.3542848,43PFM 48436 05732,0.7,1.2,196.9,3,14,--.--,--.--,,--.--,--.--,--.--,0,0,--.--,--.--,0,-2.2,-1.1,-0.3,0,0,0,--.--,--.--,--.--,--.--,--.--,--.--,--.--,--.--,--.--,--.--,--.--,--.--,45.65,50.19,--.--,0,224,0,0,0,0,0,0,180,0,0
43:15.3,-0.7,-0.7,35,0,0,0,0,0,0.026,0,0.3,10.2,-0.07,-0.07,0,0,0,00:00:00,2.5,0,--.--,27,--.--,0,0001:37:10,0,0,0,25.04,0.03,2,--.--,99,--.--,--:--:--,1,0.75,15:43:14,10-11-2023,--.--,--.--,--.--,--.--,--.--,--.--,--.--,--.--,--.--,--.--,--.--,--.--,0,0,0,0,0,0,0,0,0,0,0,0,0,FALSE,FALSE,FALSE,FALSE,FALSE,FALSE,FALSE,FALSE,FALSE,FALSE,FALSE,FALSE,--.--,--.--,--.--,--.--,--.--,--.--,--.--,--.--,10.0001362,76.3542846,43PFM 48436 05732,0.8,1.3,297.8,3,13,--.--,--.--,,--.--,--.--,--.--,0,0,--.--,--.--,0,-2.2,-1.2,-0.3,0,0,0,--.--,--.--,--.--,--.--,--.--,--.--,--.--,--.--,--.--,--.--,--.--,--.--,45.66,50.21,--.--,0,224,0,0,0,0,0,0,180,0,0
43:16.3,-0.7,-0.7,35,0,0,0,0,0,0.032,0,0.4,10.3,-0.03,-0.03,0,0,0,00:00:00,2.5,0,--.--,28,--.--,0,0001:37:10,0,0,0,25.07,0.03,2,--.--,99,--.--,--:--:--,1,0.75,15:43:15,10-11-2023,--.--,--.--,--.--,--.--,--.--,--.--,--.--,--.--,--.--,--.--,--.--,--.--,0,0,0,0,0,0,0,0,0,0,0,0,0,FALSE,FALSE,FALSE,FALSE,FALSE,FALSE,FALSE,FALSE,FALSE,FALSE,FALSE,FALSE,--.--,--.--,--.--,--.--,--.--,--.--,--.--,--.--,10.0001363,76.3542844,43PFM 48436 05732,0.8,1.3,343.3,3,13,--.--,--.--,,--.--,--.--,--.--,0,0,--.--,--.--,0,-2.2,-1.2,-0.4,0,0,0,--.--,--.--,--.--,--.--,--.--,--.--,--.--,--.--,--.--,--.--,--.--,--.--,45.66,50.25,--.--,0,224,0,0,0,0,0,0,180,0,0
43:17.3,-0.6,-0.7,35,0,0,0,0,0,0.028,0,0.4,10.3,-0.03,-0.03,0,0,0,00:00:00,2.5,0,--.--,28,--.--,0,0001:37:10,0,0,0,25.03,0.02,2,--.--,99,--.--,--:--:--,1,0.5,15:43:16,10-11-2023,--.--,--.--,--.--,--.--,--.--,--.--,--.--,--.--,--.--,--.--,--.--,--.--,0,0,0,0,0,0,0,0,0,0,0,0,0,FALSE,FALSE,FALSE,FALSE,FALSE,FALSE,FALSE,FALSE,FALSE,FALSE,FALSE,FALSE,--.--,--.--,--.--,--.--,--.--,--.--,--.--,--.--,10.0001361,76.3542844,43PFM 48436 05732,0.8,1.3,351.3,3,13,--.--,--.--,,--.--,--.--,--.--,0,0,--.--,--.--,0,-2.2,-1.2,-0.4,0,0,0,--.--,--.--,--.--,--.--,--.--,--.--,--.--,--.--,--.--,--.--,--.--,--.--,45.66,50.26,--.--,0,224,0,0,0,0,0,0,180,0,0
43:18.3,-0.6,-0.7,35,0,0,0,0,0,0.034,0,0.4,10.3,-0.01,-0.01,0,0,0,00:00:00,2.5,0,--.--,28,--.--,0,0001:37:10,0,0,0,25.05,0.02,2,--.--,99,--.--,--:--:--,1,0.5,15:43:17,10-11-2023,--.--,--.--,--.--,--.--,--.--,--.--,--.--,--.--,--.--,--.--,--.--,--.--,0,0,0,0,0,0,0,0,0,0,0,0,0,FALSE,FALSE,FALSE,FALSE,FALSE,FALSE,FALSE,FALSE,FALSE,FALSE,FALSE,FALSE,--.--,--.--,--.--,--.--,--.--,--.--,--.--,--.--,10.0001359,76.3542845,43PFM 48436 05732,0.8,1.3,59.3,3,13,--.--,--.--,,--.--,--.--,--.--,0,0,--.--,--.--,0,-2.3,-1.2,-0.4,0,0,0,--.--,--.--,--.--,--.--,--.--,--.--,--.--,--.--,--.--,--.--,--.--,--.--,45.66,50.29,--.--,0,224,0,0,0,0,0,0,180,0,0
43:19.3,-0.6,-0.7,35,0,0,0,0,0,0.031,0,0.4,10.3,-0.01,-0.01,0,0,0,00:00:00,2.5,0,--.--,27,--.--,0,0001:37:10,0,0,0,25.07,0.02,2,--.--,99,--.--,--:--:--,1,0.5,15:43:18,10-11-2023,--.--,--.--,--.--,--.--,--.--,--.--,--.--,--.--,--.--,--.--,--.--,--.--,0,0,0,0,0,0,0,0,0,0,0,0,0,FALSE,FALSE,FALSE,FALSE,FALSE,FALSE,FALSE,FALSE,FALSE,FALSE,FALSE,FALSE,--.--,--.--,--.--,--.--,--.--,--.--,--.--,--.--,10.0001358,76.3542846,43PFM 48436 05732,0.8,1.3,74.5,3,13,--.--,--.--,,--.--,--.--,--.--,0,0,--.--,--.--,0,-2.3,-1.2,-0.4,0,0,0,--.--,--.--,--.--,--.--,--.--,--.--,--.--,--.--,--.--,--.--,--.--,--.--,45.66,50.32,--.--,0,224,0,0,0,0,0,0,180,0,0
43:20.3,-0.6,-0.7,35,0,0,0,0,0,0.028,0,0.4,10.3,0,0,0,0,0,00:00:00,2.5,0,--.--,27,--.--,0,0001:37:10,0,0,0,25.03,0.02,2,--.--,99,--.--,--:--:--,1,0.5,15:43:19,10-11-2023,--.--,--.--,--.--,--.--,--.--,--.--,--.--,--.--,--.--,--.--,--.--,--.--,0,0,0,0,0,0,0,0,0,0,0,0,0,FALSE,FALSE,FALSE,FALSE,FALSE,FALSE,FALSE,FALSE,FALSE,FALSE,FALSE,FALSE,--.--,--.--,--.--,--.--,--.--,--.--,--.--,--.--,10.0001359,76.3542846,43PFM 48436 05732,0.8,1.3,177.5,3,13,--.--,--.--,,--.--,--.--,--.--,0,0,--.--,--.--,0,-2.3,-1.2,-0.4,0,0,0,--.--,--.--,--.--,--.--,--.--,--.--,--.--,--.--,--.--,--.--,--.--,--.--,45.65,50.33,--.--,0,224,0,0,0,0,0,0,180,0,0
43:21.3,-0.6,-0.7,35,0,0,0,0,0,0.019,0,0.4,10.3,-0.03,-0.03,0,0,0,00:00:00,2.5,0,--.--,27,--.--,0,0001:37:10,0,0,0,24.99,0.01,2,--.--,99,--.--,--:--:--,1,0.25,15:43:20,10-11-2023,--.--,--.--,--.--,--.--,--.--,--.--,--.--,--.--,--.--,--.--,--.--,--.--,0,0,0,0,0,0,0,0,0,0,0,0,0,FALSE,FALSE,FALSE,FALSE,FALSE,FALSE,FALSE,FALSE,FALSE,FALSE,FALSE,FALSE,--.--,--.--,--.--,--.--,--.--,--.--,--.--,--.--,10.0001359,76.3542847,43PFM 48436 05732,0.8,1.3,3.6,3,13,--.--,--.--,,--.--,--.--,--.--,0,0,--.--,--.--,0,-2.3,-1.2,-0.4,0,0,0,--.--,--.--,--.--,--.--,--.--,--.--,--.--,--.--,--.--,--.--,--.--,--.--,45.66,50.37,--.--,0,224,0,0,0,0,0,0,180,0,0
43:22.3,-0.6,-0.7,35,0,0,0,0,0,0.02,0,0.4,10.3,-0.01,-0.02,0,0,0,00:00:00,2.5,0,--.--,27,--.--,0,0001:37:10,0,0,0,25.07,0.03,2,--.--,99,--.--,--:--:--,1,0.75,15:43:21,10-11-2023,--.--,--.--,--.--,--.--,--.--,--.--,--.--,--.--,--.--,--.--,--.--,--.--,0,0,0,0,0,0,0,0,0,0,0,0,0,FALSE,FALSE,FALSE,FALSE,FALSE,FALSE,FALSE,FALSE,FALSE,FALSE,FALSE,FALSE,--.--,--.--,--.--,--.--,--.--,--.--,--.--,--.--,10.0001359,76.3542846,43PFM 48436 05732,0.8,1.3,33,3,13,--.--,--.--,,--.--,--.--,--.--,0,0,--.--,--.--,0,-2.3,-1.2,-0.4,0,0,0,--.--,--.--,--.--,--.--,--.--,--.--,--.--,--.--,--.--,--.--,--.--,--.--,45.66,50.38,--.--,0,224,0,0,0,0,0,0,180,0,0
43:23.3,-0.7,-0.7,35,0,0,0,0,0,0.017,0,0.4,10.3,-0.02,-0.02,0,0,0,00:00:00,2.6,0,--.--,27,--.--,0,0001:37:10,0,0,0,25.04,0.02,2,--.--,99,--.--,--:--:--,1,0.5,15:43:22,10-11-2023,--.--,--.--,--.--,--.--,--.--,--.--,--.--,--.--,--.--,--.--,--.--,--.--,0,0,0,0,0,0,0,0,0,0,0,0,0,FALSE,FALSE,FALSE,FALSE,FALSE,FALSE,FALSE,FALSE,FALSE,FALSE,FALSE,FALSE,--.--,--.--,--.--,--.--,--.--,--.--,--.--,--.--,10.0001361,76.3542845,43PFM 48436 05732,0.8,1.3,347.9,3,13,--.--,--.--,,--.--,--.--,--.--,0,0,--.--,--.--,0,-2.3,-1.2,-0.4,0,0,0,--.--,--.--,--.--,--.--,--.--,--.--,--.--,--.--,--.--,--.--,--.--,--.--,45.66,50.4,--.--,0,224,0,0,0,0,0,0,180,0,0
43:24.3,-0.7,-0.7,35,0,0,0,0,0,0.015,0,0.4,10.3,-0.05,-0.05,0,0,0,00:00:00,2.5,0,--.--,28,--.--,0,0001:37:10,0,0,0,25.05,0.03,2,--.--,99,--.--,--:--:--,1,0.75,15:43:23,10-11-2023,--.--,--.--,--.--,--.--,--.--,--.--,--.--,--.--,--.--,--.--,--.--,--.--,0,0,0,0,0,0,0,0,0,0,0,0,0,FALSE,FALSE,FALSE,FALSE,FALSE,FALSE,FALSE,FALSE,FALSE,FALSE,FALSE,FALSE,--.--,--.--,--.--,--.--,--.--,--.--,--.--,--.--,10.0001362,76.3542843,43PFM 48436 05732,0.8,1.3,66,3,13,--.--,--.--,,--.--,--.--,--.--,0,0,--.--,--.--,0,-2.3,-1.2,-0.4,0,0,0,--.--,--.--,--.--,--.--,--.--,--.--,--.--,--.--,--.--,--.--,--.--,--.--,45.65,50.44,--.--,0,224,0,0,0,0,0,0,180,0,0
43:25.3,-0.6,-0.7,35,0,0,0,0,0,0.01,0,0.4,10.2,-0.06,-0.06,0,0,0,00:00:00,2.6,0,--.--,28,--.--,0,0001:37:10,0,0,0,25.04,0.02,2,--.--,99,--.--,--:--:--,1,0.5,15:43:24,10-11-2023,--.--,--.--,--.--,--.--,--.--,--.--,--.--,--.--,--.--,--.--,--.--,--.--,0,0,0,0,0,0,0,0,0,0,0,0,0,FALSE,FALSE,FALSE,FALSE,FALSE,FALSE,FALSE,FALSE,FALSE,FALSE,FALSE,FALSE,--.--,--.--,--.--,--.--,--.--,--.--,--.--,--.--,10.0001361,76.3542843,43PFM 48436 05732,0.8,1.3,351.5,3,13,--.--,--.--,,--.--,--.--,--.--,0,0,--.--,--.--,0,-2.3,-1.2,-0.4,0,0,0,--.--,--.--,--.--,--.--,--.--,--.--,--.--,--.--,--.--,--.--,--.--,--.--,45.66,50.45,--.--,0,224,0,0,0,0,0,0,180,0,0
43:26.3,-0.6,-0.7,35,0,0,0,0,0,0.009,0,0.4,10.2,-0.06,-0.06,0,0,0,00:00:00,2.6,0,--.--,28,--.--,0,0001:37:10,0,0,0,25.03,0.01,2,--.--,99,--.--,--:--:--,1,0.25,15:43:25,10-11-2023,--.--,--.--,--.--,--.--,--.--,--.--,--.--,--.--,--.--,--.--,--.--,--.--,0,0,0,0,0,0,0,0,0,0,0,0,0,FALSE,FALSE,FALSE,FALSE,FALSE,FALSE,FALSE,FALSE,FALSE,FALSE,FALSE,FALSE,--.--,--.--,--.--,--.--,--.--,--.--,--.--,--.--,10.0001361,76.3542843,43PFM 48436 05732,0.8,1.3,284,3,13,--.--,--.--,,--.--,--.--,--.--,0,0,--.--,--.--,0,-2.3,-1.2,-0.4,0,0,0,--.--,--.--,--.--,--.--,--.--,--.--,--.--,--.--,--.--,--.--,--.--,--.--,45.65,50.47,--.--,0,224,0,0,0,0,0,0,180,0,0
43:27.3,-0.6,-0.7,35,0,0,0,0,0,0.012,0,0.4,10.3,-0.04,-0.04,0,0,0,00:00:00,2.6,0,--.--,28,--.--,0,0001:37:10,0,0,0,24.99,0,2,--.--,99,--.--,--:--:--,1,0,15:43:26,10-11-2023,--.--,--.--,--.--,--.--,--.--,--.--,--.--,--.--,--.--,--.--,--.--,--.--,0,0,0,0,0,0,0,0,0,0,0,0,0,FALSE,FALSE,FALSE,FALSE,FALSE,FALSE,FALSE,FALSE,FALSE,FALSE,FALSE,FALSE,--.--,--.--,--.--,--.--,--.--,--.--,--.--,--.--,10.0001362,76.3542844,43PFM 48436 05732,0.8,1.3,320.5,3,13,--.--,--.--,,--.--,--.--,--.--,0,0,--.--,--.--,0,-2.3,-1.2,-0.4,0,0,0,--.--,--.--,--.--,--.--,--.--,--.--,--.--,--.--,--.--,--.--,--.--,--.--,45.65,50.5,--.--,0,224,0,0,0,0,0,0,180,0,0
43:28.3,-0.6,-0.7,35,0,0,0,0,0,0.012,0,0.4,10.3,-0.04,-0.04,0,0,0,00:00:00,2.6,0,--.--,28,--.--,0,0001:37:10,0,0,0,25.07,0.03,2,--.--,99,--.--,--:--:--,1,0.75,15:43:27,10-11-2023,--.--,--.--,--.--,--.--,--.--,--.--,--.--,--.--,--.--,--.--,--.--,--.--,0,0,0,0,0,0,0,0,0,0,0,0,0,FALSE,FALSE,FALSE,FALSE,FALSE,FALSE,FALSE,FALSE,FALSE,FALSE,FALSE,FALSE,--.--,--.--,--.--,--.--,--.--,--.--,--.--,--.--,10.0001363,76.3542845,43PFM 48436 05732,0.8,1.3,49.2,3,13,--.--,--.--,,--.--,--.--,--.--,0,0,--.--,--.--,0,-2.3,-1.2,-0.4,0,0,0,--.--,--.--,--.--,--.--,--.--,--.--,--.--,--.--,--.--,--.--,--.--,--.--,45.65,50.52,--.--,0,224,0,0,0,0,0,0,180,0,0
43:29.3,-0.6,-0.7,35,0,0,0,0,0,0.011,0,0.3,10.2,-0.07,-0.05,0,0,0,00:00:00,2.6,0,--.--,28,--.--,0,0001:37:10,0,0,0,25.04,0.02,2,--.--,99,--.--,--:--:--,1,0.5,15:43:28,10-11-2023,--.--,--.--,--.--,--.--,--.--,--.--,--.--,--.--,--.--,--.--,--.--,--.--,0,0,0,0,0,0,0,0,0,0,0,0,0,FALSE,FALSE,FALSE,FALSE,FALSE,FALSE,FALSE,FALSE,FALSE,FALSE,FALSE,FALSE,--.--,--.--,--.--,--.--,--.--,--.--,--.--,--.--,10.0001363,76.3542845,43PFM 48436 05732,0.8,1.3,334.8,3,13,--.--,--.--,,--.--,--.--,--.--,0,0,--.--,--.--,0,-2.3,-1.2,-0.3,0,0,0,--.--,--.--,--.--,--.--,--.--,--.--,--.--,--.--,--.--,--.--,--.--,--.--,45.66,50.54,--.--,0,224,0,0,0,0,0,0,180,0,0
43:30.3,-0.7,-0.7,35,0,0,0,0,0,0.012,0,0.3,10.2,-0.08,-0.08,0,0,0,00:00:00,2.5,0,--.--,28,--.--,0,0001:37:10,0,0,0,25,0.01,2,--.--,99,--.--,--:--:--,1,0.25,15:43:29,10-11-2023,--.--,--.--,--.--,--.--,--.--,--.--,--.--,--.--,--.--,--.--,--.--,--.--,0,0,0,0,0,0,0,0,0,0,0,0,0,FALSE,FALSE,FALSE,FALSE,FALSE,FALSE,FALSE,FALSE,FALSE,FALSE,FALSE,FALSE,--.--,--.--,--.--,--.--,--.--,--.--,--.--,--.--,10.0001365,76.3542845,43PFM 48436 05732,0.8,1.3,13,3,13,--.--,--.--,,--.--,--.--,--.--,0,0,--.--,--.--,0,-2.2,-1.2,-0.3,0,0,0,--.--,--.--,--.--,--.--,--.--,--.--,--.--,--.--,--.--,--.--,--.--,--.--,45.65,50.57,--.--,0,224,0,0,0,0,0,0,180,0,0
43:31.3,-0.6,-0.7,35,0,0,0,0,0,0.014,0,0.3,10.2,-0.09,-0.09,0,0,0,00:00:00,2.5,0,--.--,28,--.--,0,0001:37:10,0,0,0,25,0.01,2,--.--,99,--.--,--:--:--,1,0.25,15:43:30,10-11-2023,--.--,--.--,--.--,--.--,--.--,--.--,--.--,--.--,--.--,--.--,--.--,--.--,0,0,0,0,0,0,0,0,0,0,0,0,0,FALSE,FALSE,FALSE,FALSE,FALSE,FALSE,FALSE,FALSE,FALSE,FALSE,FALSE,FALSE,--.--,--.--,--.--,--.--,--.--,--.--,--.--,--.--,10.0001365,76.3542845,43PFM 48436 05732,0.8,1.3,321.5,3,13,--.--,--.--,,--.--,--.--,--.--,0,0,--.--,--.--,0,-2.2,-1.2,-0.3,0,0,0,--.--,--.--,--.--,--.--,--.--,--.--,--.--,--.--,--.--,--.--,--.--,--.--,45.66,50.6,--.--,0,224,0,0,0,0,0,0,180,0,0
43:32.3,-0.7,-0.7,35,0,0,0,0,0,0.014,0,0.3,10.2,-0.14,-0.09,0,0,0,00:00:00,2.5,0,--.--,28,--.--,0,0001:37:10,0,0,0,25,0.01,2,--.--,99,--.--,--:--:--,1,0.25,15:43:31,10-11-2023,--.--,--.--,--.--,--.--,--.--,--.--,--.--,--.--,--.--,--.--,--.--,--.--,0,0,0,0,0,0,0,0,0,0,0,0,0,FALSE,FALSE,FALSE,FALSE,FALSE,FALSE,FALSE,FALSE,FALSE,FALSE,FALSE,FALSE,--.--,--.--,--.--,--.--,--.--,--.--,--.--,--.--,10.0001365,76.3542845,43PFM 48436 05732,0.8,1.3,321.5,3,13,--.--,--.--,,--.--,--.--,--.--,0,0,--.--,--.--,0,-2.2,-1.2,-0.3,0,0,0,--.--,--.--,--.--,--.--,--.--,--.--,--.--,--.--,--.--,--.--,--.--,--.--,45.66,50.6,--.--,0,224,0,0,0,0,0,0,180,0,0
43:33.3,-0.6,-0.7,35,0,0,0,0,0,0.014,0,0.3,10.2,-0.16,-0.09,0,0,0,00:00:00,2.5,0,--.--,29,--.--,0,0001:37:10,0,0,0,25,0.01,2,--.--,99,--.--,--:--:--,1,0.25,15:43:32,10-11-2023,--.--,--.--,--.--,--.--,--.--,--.--,--.--,--.--,--.--,--.--,--.--,--.--,0,0,0,0,0,0,0,0,0,0,0,0,0,FALSE,FALSE,FALSE,FALSE,FALSE,FALSE,FALSE,FALSE,FALSE,FALSE,FALSE,FALSE,--.--,--.--,--.--,--.--,--.--,--.--,--.--,--.--,10.0001365,76.3542845,43PFM 48436 05732,0.8,1.3,321.5,3,13,--.--,--.--,,--.--,--.--,--.--,0,0,--.--,--.--,0,-2.2,-1.2,-0.3,0,0,0,--.--,--.--,--.--,--.--,--.--,--.--,--.--,--.--,--.--,--.--,--.--,--.--,45.66,50.6,--.--,0,224,0,0,0,0,0,0,180,0,0
43:34.3,-0.6,-0.7,35,0,0,0,0,0,0.011,0,0.2,10.1,-0.2,-0.18,0,0,0,00:00:00,2.5,0,--.--,28,--.--,0,0001:37:10,0,0,0,25,0.01,2,--.--,99,--.--,--:--:--,1,0.25,15:43:33,10-11-2023,--.--,--.--,--.--,--.--,--.--,--.--,--.--,--.--,--.--,--.--,--.--,--.--,0,0,0,0,0,0,0,0,0,0,0,0,0,FALSE,FALSE,FALSE,FALSE,FALSE,FALSE,FALSE,FALSE,FALSE,FALSE,FALSE,FALSE,--.--,--.--,--.--,--.--,--.--,--.--,--.--,--.--,10.0001365,76.3542846,43PFM 48436 05732,0.8,1.3,16.5,3,13,--.--,--.--,,--.--,--.--,--.--,0,0,--.--,--.--,0,-2.2,-1.2,-0.2,0,0,0,--.--,--.--,--.--,--.--,--.--,--.--,--.--,--.--,--.--,--.--,--.--,--.--,45.66,50.64,--.--,0,224,0,0,0,0,0,0,180,0,0
43:35.3,-0.6,-0.7,35,0,0,0,0,0,0.009,0,0.2,10.1,-0.21,-0.21,0,0,0,00:00:00,2.5,0,--.--,28,--.--,0,0001:37:10,0,0,0,25.05,0.02,2,--.--,99,--.--,--:--:--,1,0.5,15:43:34,10-11-2023,--.--,--.--,--.--,--.--,--.--,--.--,--.--,--.--,--.--,--.--,--.--,--.--,0,0,0,0,0,0,0,0,0,0,0,0,0,FALSE,FALSE,FALSE,FALSE,FALSE,FALSE,FALSE,FALSE,FALSE,FALSE,FALSE,FALSE,--.--,--.--,--.--,--.--,--.--,--.--,--.--,--.--,10.0001362,76.3542848,43PFM 48436 05732,0.8,1.3,225,3,13,--.--,--.--,,--.--,--.--,--.--,0,0,--.--,--.--,0,-2.2,-1.2,-0.2,0,0,0,--.--,--.--,--.--,--.--,--.--,--.--,--.--,--.--,--.--,--.--,--.--,--.--,45.66,50.68,--.--,0,224,0,0,0,0,0,0,180,0,0
43:36.3,-0.6,-0.7,35,0,0,0,0,0,0.014,0,0.2,10.1,-0.2,-0.2,0,0,0,00:00:00,2.5,0,--.--,28,--.--,0,0001:37:10,0,0,0,24.99,0.01,2,--.--,99,--.--,--:--:--,1,0.25,15:43:35,10-11-2023,--.--,--.--,--.--,--.--,--.--,--.--,--.--,--.--,--.--,--.--,--.--,--.--,0,0,0,0,0,0,0,0,0,0,0,0,0,FALSE,FALSE,FALSE,FALSE,FALSE,FALSE,FALSE,FALSE,FALSE,FALSE,FALSE,FALSE,--.--,--.--,--.--,--.--,--.--,--.--,--.--,--.--,10.0001361,76.3542849,43PFM 48436 05732,0.8,1.3,154.7,3,13,--.--,--.--,,--.--,--.--,--.--,0,0,--.--,--.--,0,-2.2,-1.2,-0.2,0,0,0,--.--,--.--,--.--,--.--,--.--,--.--,--.--,--.--,--.--,--.--,--.--,--.--,45.66,50.7,--.--,0,224,0,0,0,0,0,0,180,0,0
43:37.3,-0.6,-0.7,35,0,0,0,0,0,0.017,0,0.2,10.1,-0.17,-0.18,0,0,0,00:00:00,2.5,0,--.--,27,--.--,0,0001:37:10,0,0,0,25.01,0.02,2,--.--,99,--.--,--:--:--,1,0.5,15:43:36,10-11-2023,--.--,--.--,--.--,--.--,--.--,--.--,--.--,--.--,--.--,--.--,--.--,--.--,0,0,0,0,0,0,0,0,0,0,0,0,0,FALSE,FALSE,FALSE,FALSE,FALSE,FALSE,FALSE,FALSE,FALSE,FALSE,FALSE,FALSE,--.--,--.--,--.--,--.--,--.--,--.--,--.--,--.--,10.000136,76.3542849,43PFM 48436 05732,0.8,1.3,285.1,3,13,--.--,--.--,,--.--,--.--,--.--,0,0,--.--,--.--,0,-2.3,-1.2,-0.2,0,0,0,--.--,--.--,--.--,--.--,--.--,--.--,--.--,--.--,--.--,--.--,--.--,--.--,45.65,50.74,--.--,0,224,0,0,0,0,0,0,180,0,0
43:38.3,-0.6,-0.6,35,0,0,0,0,0,0.013,0,0.2,10.1,-0.18,-0.18,0,0,0,00:00:00,2.6,0,--.--,27,--.--,0,0001:37:10,0,0,0,25.05,0.03,2,--.--,99,--.--,--:--:--,1,0.75,15:43:37,10-11-2023,--.--,--.--,--.--,--.--,--.--,--.--,--.--,--.--,--.--,--.--,--.--,--.--,0,0,0,0,0,0,0,0,0,0,0,0,0,FALSE,FALSE,FALSE,FALSE,FALSE,FALSE,FALSE,FALSE,FALSE,FALSE,FALSE,FALSE,--.--,--.--,--.--,--.--,--.--,--.--,--.--,--.--,10.0001359,76.3542849,43PFM 48436 05732,0.8,1.3,247.4,3,13,--.--,--.--,,--.--,--.--,--.--,0,0,--.--,--.--,0,-2.3,-1.2,-0.2,0,0,0,--.--,--.--,--.--,--.--,--.--,--.--,--.--,--.--,--.--,--.--,--.--,--.--,45.65,50.74,--.--,0,224,0,0,0,0,0,0,180,0,0
43:39.3,-0.6,-0.7,35,0,0,0,0,0,0.007,0,0.2,10.1,-0.18,-0.18,0,0,0,00:00:00,2.6,0,--.--,28,--.--,0,0001:37:10,0,0,0,25.01,0.01,2,--.--,99,--.--,--:--:--,1,0.25,15:43:38,10-11-2023,--.--,--.--,--.--,--.--,--.--,--.--,--.--,--.--,--.--,--.--,--.--,--.--,0,0,0,0,0,0,0,0,0,0,0,0,0,FALSE,FALSE,FALSE,FALSE,FALSE,FALSE,FALSE,FALSE,FALSE,FALSE,FALSE,FALSE,--.--,--.--,--.--,--.--,--.--,--.--,--.--,--.--,10.0001358,76.3542847,43PFM 48436 05732,0.7,1.2,65.4,3,14,--.--,--.--,,--.--,--.--,--.--,0,0,--.--,--.--,0,-2.3,-1.2,-0.2,0,0,0,--.--,--.--,--.--,--.--,--.--,--.--,--.--,--.--,--.--,--.--,--.--,--.--,45.65,50.76,--.--,0,224,0,0,0,0,0,0,180,0,0
43:40.3,-0.6,-0.7,35,0,0,0,0,0,0.013,0,0.2,10.1,-0.19,-0.19,0,0,0,00:00:00,2.6,0,--.--,27,--.--,0,0001:37:10,0,0,0,24.98,0.01,2,--.--,99,--.--,--:--:--,1,0.25,15:43:39,10-11-2023,--.--,--.--,--.--,--.--,--.--,--.--,--.--,--.--,--.--,--.--,--.--,--.--,0,0,0,0,0,0,0,0,0,0,0,0,0,FALSE,FALSE,FALSE,FALSE,FALSE,FALSE,FALSE,FALSE,FALSE,FALSE,FALSE,FALSE,--.--,--.--,--.--,--.--,--.--,--.--,--.--,--.--,10.0001359,76.3542846,43PFM 48436 05732,0.8,1.3,303.7,3,13,--.--,--.--,,--.--,--.--,--.--,0,0,--.--,--.--,0,-2.3,-1.2,-0.2,0,0,0,--.--,--.--,--.--,--.--,--.--,--.--,--.--,--.--,--.--,--.--,--.--,--.--,45.65,50.79,--.--,0,224,0,0,0,0,0,0,180,0,0
43:41.3,-0.6,-0.7,35,0,0,0,0,0,0.013,0,0.2,10.1,-0.22,-0.22,0,0,0,00:00:00,2.6,0,--.--,27,--.--,0,0001:37:10,0,0,0,24.98,0.01,2,--.--,99,--.--,--:--:--,1,0.25,15:43:40,10-11-2023,--.--,--.--,--.--,--.--,--.--,--.--,--.--,--.--,--.--,--.--,--.--,--.--,0,0,0,0,0,0,0,0,0,0,0,0,0,FALSE,FALSE,FALSE,FALSE,FALSE,FALSE,FALSE,FALSE,FALSE,FALSE,FALSE,FALSE,--.--,--.--,--.--,--.--,--.--,--.--,--.--,--.--,10.0001359,76.3542847,43PFM 48436 05732,0.8,1.3,329,3,13,--.--,--.--,,--.--,--.--,--.--,0,0,--.--,--.--,0,-2.3,-1.2,-0.2,0,0,0,--.--,--.--,--.--,--.--,--.--,--.--,--.--,--.--,--.--,--.--,--.--,--.--,45.65,50.8,--.--,0,224,0,0,0,0,0,0,180,0,0
43:42.3,-0.6,-0.7,35,0,0,0,0,0,0.012,0,0.2,10.1,-0.23,-0.23,0,0,0,00:00:00,2.5,0,--.--,27,--.--,0,0001:37:10,0,0,0,25.04,0.02,2,--.--,99,--.--,--:--:--,1,0.5,15:43:41,10-11-2023,--.--,--.--,--.--,--.--,--.--,--.--,--.--,--.--,--.--,--.--,--.--,--.--,0,0,0,0,0,0,0,0,0,0,0,0,0,FALSE,FALSE,FALSE,FALSE,FALSE,FALSE,FALSE,FALSE,FALSE,FALSE,FALSE,FALSE,--.--,--.--,--.--,--.--,--.--,--.--,--.--,--.--,10.000136,76.3542846,43PFM 48436 05732,0.7,1.2,25,3,14,--.--,--.--,,--.--,--.--,--.--,0,0,--.--,--.--,0,-2.3,-1.2,-0.2,0,0,0,--.--,--.--,--.--,--.--,--.--,--.--,--.--,--.--,--.--,--.--,--.--,--.--,45.66,50.83,--.--,0,224,0,0,0,0,0,0,180,0,0
43:43.3,-0.6,-0.7,35,0,0,0,0,0,0.01,0,0.2,10.1,-0.18,-0.2,0,0,0,00:00:00,2.6,0,--.--,27,--.--,0,0001:37:10,0,0,0,24.97,0.01,2,--.--,99,--.--,--:--:--,1,0.25,15:43:42,10-11-2023,--.--,--.--,--.--,--.--,--.--,--.--,--.--,--.--,--.--,--.--,--.--,--.--,0,0,0,0,0,0,0,0,0,0,0,0,0,FALSE,FALSE,FALSE,FALSE,FALSE,FALSE,FALSE,FALSE,FALSE,FALSE,FALSE,FALSE,--.--,--.--,--.--,--.--,--.--,--.--,--.--,--.--,10.000136,76.3542844,43PFM 48436 05732,0.8,1.3,152.5,3,13,--.--,--.--,,--.--,--.--,--.--,0,0,--.--,--.--,0,-2.3,-1.2,-0.2,0,0,0,--.--,--.--,--.--,--.--,--.--,--.--,--.--,--.--,--.--,--.--,--.--,--.--,45.66,50.86,--.--,0,224,0,0,0,0,0,0,180,0,0
43:44.3,-0.7,-0.7,35,0,0,0,0,0,0.015,0,0.3,10.2,-0.14,-0.15,0,0,0,00:00:00,2.6,0,--.--,28,--.--,0,0001:37:10,0,0,0,25,0.01,2,--.--,99,--.--,--:--:--,1,0.25,15:43:43,10-11-2023,--.--,--.--,--.--,--.--,--.--,--.--,--.--,--.--,--.--,--.--,--.--,--.--,0,0,0,0,0,0,0,0,0,0,0,0,0,FALSE,FALSE,FALSE,FALSE,FALSE,FALSE,FALSE,FALSE,FALSE,FALSE,FALSE,FALSE,--.--,--.--,--.--,--.--,--.--,--.--,--.--,--.--,10.0001359,76.3542841,43PFM 48436 05732,0.8,1.3,327,3,13,--.--,--.--,,--.--,--.--,--.--,0,0,--.--,--.--,0,-2.3,-1.2,-0.3,0,0,0,--.--,--.--,--.--,--.--,--.--,--.--,--.--,--.--,--.--,--.--,--.--,--.--,45.65,50.88,--.--,0,224,0,0,0,0,0,0,180,0,0
43:45.3,-0.7,-0.7,35,0,0,0,0,0,0.026,0,0.3,10.2,-0.12,-0.12,0,0,0,00:00:00,2.6,0,--.--,28,--.--,0,0001:37:10,0,0,0,25.05,0.02,2,--.--,99,--.--,--:--:--,1,0.5,15:43:44,10-11-2023,--.--,--.--,--.--,--.--,--.--,--.--,--.--,--.--,--.--,--.--,--.--,--.--,0,0,0,0,0,0,0,0,0,0,0,0,0,FALSE,FALSE,FALSE,FALSE,FALSE,FALSE,FALSE,FALSE,FALSE,FALSE,FALSE,FALSE,--.--,--.--,--.--,--.--,--.--,--.--,--.--,--.--,10.000136,76.3542838,43PFM 48436 05732,0.8,1.3,342.3,3,13,--.--,--.--,,--.--,--.--,--.--,0,0,--.--,--.--,0,-2.3,-1.2,-0.3,0,0,0,--.--,--.--,--.--,--.--,--.--,--.--,--.--,--.--,--.--,--.--,--.--,--.--,45.66,50.89,--.--,0,224,0,0,0,0,0,0,180,0,0
