Timestamp,roll,pitch,heading,rollRate,pitchRate,yawRate,groundSpeed,airSpeed,airSpeedSetpoint,climbRate,altitudeRelative,altitudeAMSL,altitudeTuning,altitudeTuningSetpoint,xTrackError,rangeFinderDist,flightDistance,flightTime,distanceToHome,missionItemIndex,headingToNextWP,headingToHome,distanceToGCS,throttlePct,hobbs,battery0.id,battery0.batteryFunction,battery0.batteryType,battery0.voltage,battery0.current,battery0.mahConsumed,battery0.temperature,battery0.percentRemaining,battery0.timeRemaining,battery0.timeRemainingStr,battery0.chargeState,battery0.instantPower,clock.currentTime,clock.currentDate,distanceSensor.rotationNone,distanceSensor.rotationYaw45,distanceSensor.rotationYaw90,distanceSensor.rotationYaw135,distanceSensor.rotationYaw180,distanceSensor.rotationYaw225,distanceSensor.rotationYaw270,distanceSensor.rotationYaw315,distanceSensor.rotationPitch90,distanceSensor.rotationPitch270,distanceSensor.minDistance,distanceSensor.maxDistance,escStatus.index,escStatus.rpm1,escStatus.rpm2,escStatus.rpm3,escStatus.rpm4,escStatus.current1,escStatus.current2,escStatus.current3,escStatus.current4,escStatus.voltage1,escStatus.voltage2,escStatus.voltage3,escStatus.voltage4,estimatorStatus.goodAttitudeEsimate,estimatorStatus.goodHorizVelEstimate,estimatorStatus.goodVertVelEstimate,estimatorStatus.goodHorizPosRelEstimate,estimatorStatus.goodHorizPosAbsEstimate,estimatorStatus.goodVertPosAbsEstimate,estimatorStatus.goodVertPosAGLEstimate,estimatorStatus.goodConstPosModeEstimate,estimatorStatus.goodPredHorizPosRelEstimate,estimatorStatus.goodPredHorizPosAbsEstimate,estimatorStatus.gpsGlitch,estimatorStatus.accelError,estimatorStatus.velRatio,estimatorStatus.horizPosRatio,estimatorStatus.vertPosRatio,estimatorStatus.magRatio,estimatorStatus.haglRatio,estimatorStatus.tasRatio,estimatorStatus.horizPosAccuracy,estimatorStatus.vertPosAccuracy,gps.lat,gps.lon,gps.mgrs,gps.hdop,gps.vdop,gps.courseOverGround,gps.lock,gps.count,gps2.lat,gps2.lon,gps2.mgrs,gps2.hdop,gps2.vdop,gps2.courseOverGround,gps2.lock,gps2.count,hygrometer.temperature,hygrometer.humidity,hygrometer.hygrometerid,localPosition.x,localPosition.y,localPosition.z,localPosition.vx,localPosition.vy,localPosition.vz,localPositionSetpoint.x,localPositionSetpoint.y,localPositionSetpoint.z,localPositionSetpoint.vx,localPositionSetpoint.vy,localPositionSetpoint.vz,setpoint.roll,setpoint.pitch,setpoint.yaw,setpoint.rollRate,setpoint.pitchRate,setpoint.yawRate,temperature.temperature1,temperature.temperature2,temperature.temperature3,terrain.blocksPending,terrain.blocksLoaded,vibration.xAxis,vibration.yAxis,vibration.zAxis,vibration.clipCount1,vibration.clipCount2,vibration.clipCount3,wind.direction,wind.speed,wind.verticalSpeed
2023-10-11 15:09:45.805,-1.1,1.2,59,0.0,0.0,0.0,0.0,0.1,0.052,-0.1,-0.2,7.3,-0.040,-0.010,0.000,0.000,0.0,00:00:00,3.4,0,--.--,142,--.--,0,0000:00:00,0,0,0,23.89,0.03,4102,--.--,81,--.--,--:--:--,1,0.72,nan,nan,--.--,--.--,--.--,--.--,--.--,--.--,--.--,--.--,--.--,--.--,--.--,--.--,0,0.000,0.000,0.000,0.000,0.000,0.000,0.000,0.000,0.000,0.000,0.000,0.000,false,false,false,false,false,false,false,false,false,false,false,false,--.--,--.--,--.--,--.--,--.--,--.--,--.--,--.--,10.0001122,76.3542722,43PFM 48435 05729,0.7,1.1,137.0,3,15,--.--,--.--,,--.--,--.--,--.--,0,0,--.--,--.--,0,1.8,-2.4,-0.2,0.0,-0.0,0.1,--.--,--.--,--.--,--.--,--.--,--.--,--.--,--.--,--.--,--.--,--.--,--.--,45.74,48.64,--.--,0,224,0.0,0.0,0.0,0,0,0,180.0,0.0,0.0
2023-10-11 15:09:46.801,-1.1,1.2,59,0.0,0.0,0.0,0.0,0.1,0.112,-0.1,-0.3,7.2,-0.080,-0.080,0.000,0.000,0.0,00:00:00,3.4,0,--.--,142,--.--,0,0000:00:00,0,0,0,23.84,0.02,4102,--.--,81,--.--,--:--:--,1,0.48,15:09:45,10/11/2023,--.--,--.--,--.--,--.--,--.--,--.--,--.--,--.--,--.--,--.--,--.--,--.--,0,0.000,0.000,0.000,0.000,0.000,0.000,0.000,0.000,0.000,0.000,0.000,0.000,false,false,false,false,false,false,false,false,false,false,false,false,--.--,--.--,--.--,--.--,--.--,--.--,--.--,--.--,10.0001123,76.3542722,43PFM 48435 05729,0.7,1.1,281.3,3,15,--.--,--.--,,--.--,--.--,--.--,0,0,--.--,--.--,0,1.8,-2.4,-0.1,-0.0,0.0,0.1,--.--,--.--,--.--,--.--,--.--,--.--,--.--,--.--,--.--,--.--,--.--,--.--,45.74,48.64,--.--,0,224,0.0,0.0,0.0,0,0,0,180.0,0.0,0.0
2023-10-11 15:09:47.815,-1.1,1.2,59,0.0,0.0,0.0,0.0,0.0,0.112,-0.0,-0.2,7.3,-0.020,-0.080,0.000,0.000,0.0,00:00:00,3.5,0,--.--,143,--.--,0,0000:00:00,0,0,0,23.89,0.03,4102,--.--,81,--.--,--:--:--,1,0.72,15:09:46,10/11/2023,--.--,--.--,--.--,--.--,--.--,--.--,--.--,--.--,--.--,--.--,--.--,--.--,0,0.000,0.000,0.000,0.000,0.000,0.000,0.000,0.000,0.000,0.000,0.000,0.000,false,false,false,false,false,false,false,false,false,false,false,false,--.--,--.--,--.--,--.--,--.--,--.--,--.--,--.--,10.0001123,76.3542722,43PFM 48435 05729,0.7,1.1,281.3,3,15,--.--,--.--,,--.--,--.--,--.--,0,0,--.--,--.--,0,1.9,-2.4,-0.2,0.0,-0.0,0.0,--.--,--.--,--.--,--.--,--.--,--.--,--.--,--.--,--.--,--.--,--.--,--.--,45.74,48.64,--.--,0,224,0.0,0.0,0.0,0,0,0,180.0,0.0,0.0
2023-10-11 15:09:48.802,-1.1,1.2,59,0.0,0.0,0.0,0.0,0.0,0.007,0.0,-0.2,7.3,0.050,0.020,0.000,0.000,0.0,00:00:00,3.5,0,--.--,143,--.--,0,0000:00:00,0,0,0,23.89,0.03,4102,--.--,81,--.--,--:--:--,1,0.72,15:09:47,10/11/2023,--.--,--.--,--.--,--.--,--.--,--.--,--.--,--.--,--.--,--.--,--.--,--.--,0,0.000,0.000,0.000,0.000,0.000,0.000,0.000,0.000,0.000,0.000,0.000,0.000,false,false,false,false,false,false,false,false,false,false,false,false,--.--,--.--,--.--,--.--,--.--,--.--,--.--,--.--,10.0001123,76.3542725,43PFM 48435 05729,0.7,1.1,300.6,3,15,--.--,--.--,,--.--,--.--,--.--,0,0,--.--,--.--,0,1.9,-2.4,-0.2,0.0,-0.0,0.0,--.--,--.--,--.--,--.--,--.--,--.--,--.--,--.--,--.--,--.--,--.--,--.--,45.73,48.68,--.--,0,224,0.0,0.0,0.0,0,0,0,180.0,0.0,0.0
2023-10-11 15:09:49.818,-1.1,1.2,60,0.0,0.0,0.0,0.0,0.0,0.007,0.0,-0.1,7.4,0.150,0.020,0.000,0.000,0.0,00:00:00,3.5,0,--.--,143,--.--,0,0000:00:00,0,0,0,23.89,0.03,4102,--.--,81,--.--,--:--:--,1,0.72,15:09:48,10/11/2023,--.--,--.--,--.--,--.--,--.--,--.--,--.--,--.--,--.--,--.--,--.--,--.--,0,0.000,0.000,0.000,0.000,0.000,0.000,0.000,0.000,0.000,0.000,0.000,0.000,false,false,false,false,false,false,false,false,false,false,false,false,--.--,--.--,--.--,--.--,--.--,--.--,--.--,--.--,10.0001123,76.3542725,43PFM 48435 05729,0.7,1.1,300.6,3,15,--.--,--.--,,--.--,--.--,--.--,0,0,--.--,--.--,0,1.9,-2.4,-0.3,-0.0,0.0,-0.0,--.--,--.--,--.--,--.--,--.--,--.--,--.--,--.--,--.--,--.--,--.--,--.--,45.73,48.68,--.--,0,224,0.0,0.0,0.0,0,0,0,180.0,0.0,0.0
2023-10-11 15:09:50.816,-1.1,1.2,60,0.0,0.0,0.0,0.0,0.0,0.040,0.0,-0.1,7.4,0.140,0.140,0.000,0.000,0.0,00:00:00,3.5,0,--.--,143,--.--,0,0000:00:00,0,0,0,23.89,0.03,4102,--.--,81,--.--,--:--:--,1,0.72,15:09:49,10/11/2023,--.--,--.--,--.--,--.--,--.--,--.--,--.--,--.--,--.--,--.--,--.--,--.--,0,0.000,0.000,0.000,0.000,0.000,0.000,0.000,0.000,0.000,0.000,0.000,0.000,false,false,false,false,false,false,false,false,false,false,false,false,--.--,--.--,--.--,--.--,--.--,--.--,--.--,--.--,10.0001124,76.3542728,43PFM 48435 05729,0.7,1.1,251.6,3,15,--.--,--.--,,--.--,--.--,--.--,0,0,--.--,--.--,0,1.9,-2.4,-0.4,-0.0,0.0,-0.0,--.--,--.--,--.--,--.--,--.--,--.--,--.--,--.--,--.--,--.--,--.--,--.--,45.73,48.70,--.--,0,224,0.0,0.0,0.0,0,0,0,180.0,0.0,0.0
2023-10-11 15:09:51.818,-1.1,1.2,60,0.0,0.0,0.0,0.0,0.0,0.040,0.0,-0.0,7.5,0.190,0.140,0.000,0.000,0.0,00:00:00,3.5,0,--.--,143,--.--,0,0000:00:00,0,0,0,23.87,0.02,4102,--.--,81,--.--,--:--:--,1,0.48,15:09:50,10/11/2023,--.--,--.--,--.--,--.--,--.--,--.--,--.--,--.--,--.--,--.--,--.--,--.--,0,0.000,0.000,0.000,0.000,0.000,0.000,0.000,0.000,0.000,0.000,0.000,0.000,false,false,false,false,false,false,false,false,false,false,false,false,--.--,--.--,--.--,--.--,--.--,--.--,--.--,--.--,10.0001124,76.3542728,43PFM 48435 05729,0.7,1.1,251.6,3,15,--.--,--.--,,--.--,--.--,--.--,0,0,--.--,--.--,0,1.9,-2.3,-0.4,-0.0,0.0,-0.0,--.--,--.--,--.--,--.--,--.--,--.--,--.--,--.--,--.--,--.--,--.--,--.--,45.73,48.70,--.--,0,224,0.0,0.0,0.0,0,0,0,180.0,0.0,0.0
2023-10-11 15:09:52.818,-1.1,1.2,60,0.0,0.0,0.0,0.0,0.0,0.042,0.0,-0.0,7.5,0.200,0.200,0.000,0.000,0.0,00:00:00,3.5,0,--.--,143,--.--,0,0000:00:00,0,0,0,23.87,0.02,4102,--.--,81,--.--,--:--:--,1,0.48,15:09:51,10/11/2023,--.--,--.--,--.--,--.--,--.--,--.--,--.--,--.--,--.--,--.--,--.--,--.--,0,0.000,0.000,0.000,0.000,0.000,0.000,0.000,0.000,0.000,0.000,0.000,0.000,false,false,false,false,false,false,false,false,false,false,false,false,--.--,--.--,--.--,--.--,--.--,--.--,--.--,--.--,10.0001121,76.3542731,43PFM 48435 05729,0.7,1.1,336.0,3,15,--.--,--.--,,--.--,--.--,--.--,0,0,--.--,--.--,0,1.9,-2.3,-0.4,-0.0,0.0,-0.0,--.--,--.--,--.--,--.--,--.--,--.--,--.--,--.--,--.--,--.--,--.--,--.--,45.72,48.72,--.--,0,224,0.0,0.0,0.0,0,0,0,180.0,0.0,0.0
2023-10-11 15:09:53.817,-1.1,1.2,60,0.0,0.0,0.0,0.0,0.0,0.042,0.0,0.0,7.5,0.220,0.200,0.000,0.000,0.0,00:00:00,3.5,0,--.--,144,--.--,0,0000:00:00,0,0,0,23.88,0.03,4102,--.--,81,--.--,--:--:--,1,0.72,15:09:52,10/11/2023,--.--,--.--,--.--,--.--,--.--,--.--,--.--,--.--,--.--,--.--,--.--,--.--,0,0.000,0.000,0.000,0.000,0.000,0.000,0.000,0.000,0.000,0.000,0.000,0.000,false,false,false,false,false,false,false,false,false,false,false,false,--.--,--.--,--.--,--.--,--.--,--.--,--.--,--.--,10.0001121,76.3542731,43PFM 48435 05729,0.7,1.1,336.0,3,15,--.--,--.--,,--.--,--.--,--.--,0,0,--.--,--.--,0,1.9,-2.3,-0.4,-0.0,0.0,-0.0,--.--,--.--,--.--,--.--,--.--,--.--,--.--,--.--,--.--,--.--,--.--,--.--,45.72,48.72,--.--,0,224,0.0,0.0,0.0,0,0,0,180.0,0.0,0.0
2023-10-11 15:09:54.822,-1.1,1.2,60,0.0,0.0,0.0,0.0,0.0,0.029,0.0,-0.0,7.5,0.190,0.210,0.000,0.000,0.0,00:00:00,3.4,0,--.--,144,--.--,0,0000:00:00,0,0,0,23.88,0.03,4102,--.--,81,--.--,--:--:--,1,0.72,15:09:53,10/11/2023,--.--,--.--,--.--,--.--,--.--,--.--,--.--,--.--,--.--,--.--,--.--,--.--,0,0.000,0.000,0.000,0.000,0.000,0.000,0.000,0.000,0.000,0.000,0.000,0.000,false,false,false,false,false,false,false,false,false,false,false,false,--.--,--.--,--.--,--.--,--.--,--.--,--.--,--.--,10.0001121,76.3542731,43PFM 48435 05729,0.7,1.1,336.0,3,15,--.--,--.--,,--.--,--.--,--.--,0,0,--.--,--.--,0,1.9,-2.3,-0.4,-0.0,0.0,-0.0,--.--,--.--,--.--,--.--,--.--,--.--,--.--,--.--,--.--,--.--,--.--,--.--,45.72,48.72,--.--,0,224,0.0,0.0,0.0,0,0,0,180.0,0.0,0.0
2023-10-11 15:09:55.817,-1.1,1.2,60,0.0,0.0,0.0,0.0,0.0,0.029,0.0,-0.0,7.5,0.160,0.210,0.000,0.000,0.0,00:00:00,3.4,0,--.--,144,--.--,0,0000:00:00,0,0,0,23.89,0.03,4102,--.--,81,--.--,--:--:--,1,0.72,15:09:54,10/11/2023,--.--,--.--,--.--,--.--,--.--,--.--,--.--,--.--,--.--,--.--,--.--,--.--,0,0.000,0.000,0.000,0.000,0.000,0.000,0.000,0.000,0.000,0.000,0.000,0.000,false,false,false,false,false,false,false,false,false,false,false,false,--.--,--.--,--.--,--.--,--.--,--.--,--.--,--.--,10.0001121,76.3542731,43PFM 48435 05729,0.7,1.1,336.0,3,15,--.--,--.--,,--.--,--.--,--.--,0,0,--.--,--.--,0,1.8,-2.3,-0.4,-0.0,0.0,-0.0,--.--,--.--,--.--,--.--,--.--,--.--,--.--,--.--,--.--,--.--,--.--,--.--,45.72,48.72,--.--,0,224,0.0,0.0,0.0,0,0,0,180.0,0.0,0.0
2023-10-11 15:09:56.819,-1.1,1.2,60,0.0,0.0,0.0,0.0,0.0,0.023,-0.0,-0.0,7.5,0.100,0.140,0.000,0.000,0.0,00:00:00,3.4,0,--.--,144,--.--,0,0000:00:00,0,0,0,23.89,0.03,4102,--.--,81,--.--,--:--:--,1,0.72,15:09:55,10/11/2023,--.--,--.--,--.--,--.--,--.--,--.--,--.--,--.--,--.--,--.--,--.--,--.--,0,0.000,0.000,0.000,0.000,0.000,0.000,0.000,0.000,0.000,0.000,0.000,0.000,false,false,false,false,false,false,false,false,false,false,false,false,--.--,--.--,--.--,--.--,--.--,--.--,--.--,--.--,10.0001111,76.3542742,43PFM 48435 05729,0.7,1.1,191.3,3,15,--.--,--.--,,--.--,--.--,--.--,0,0,--.--,--.--,0,1.8,-2.3,-0.4,-0.0,0.0,-0.0,--.--,--.--,--.--,--.--,--.--,--.--,--.--,--.--,--.--,--.--,--.--,--.--,45.74,48.76,--.--,0,224,0.0,0.0,0.0,0,0,0,180.0,0.0,0.0
2023-10-11 15:09:57.818,-1.1,1.2,60,0.0,0.0,0.0,0.0,0.0,0.023,-0.0,-0.1,7.4,0.080,0.140,0.000,0.000,0.0,00:00:00,3.3,0,--.--,144,--.--,0,0000:00:00,0,0,0,23.90,0.02,4102,--.--,81,--.--,--:--:--,1,0.48,15:09:56,10/11/2023,--.--,--.--,--.--,--.--,--.--,--.--,--.--,--.--,--.--,--.--,--.--,--.--,0,0.000,0.000,0.000,0.000,0.000,0.000,0.000,0.000,0.000,0.000,0.000,0.000,false,false,false,false,false,false,false,false,false,false,false,false,--.--,--.--,--.--,--.--,--.--,--.--,--.--,--.--,10.0001111,76.3542742,43PFM 48435 05729,0.7,1.1,191.3,3,15,--.--,--.--,,--.--,--.--,--.--,0,0,--.--,--.--,0,1.8,-2.2,-0.3,-0.0,0.0,0.0,--.--,--.--,--.--,--.--,--.--,--.--,--.--,--.--,--.--,--.--,--.--,--.--,45.74,48.76,--.--,0,224,0.0,0.0,0.0,0,0,0,180.0,0.0,0.0
2023-10-11 15:09:58.820,-1.2,1.2,60,0.0,0.0,0.0,0.0,0.0,0.017,-0.0,-0.1,7.3,0.030,0.060,0.000,0.000,0.0,00:00:00,3.3,0,--.--,144,--.--,0,0000:00:00,0,0,0,23.86,0.03,4102,--.--,81,--.--,--:--:--,1,0.72,15:09:57,10/11/2023,--.--,--.--,--.--,--.--,--.--,--.--,--.--,--.--,--.--,--.--,--.--,--.--,0,0.000,0.000,0.000,0.000,0.000,0.000,0.000,0.000,0.000,0.000,0.000,0.000,false,false,false,false,false,false,false,false,false,false,false,false,--.--,--.--,--.--,--.--,--.--,--.--,--.--,--.--,10.0001106,76.3542747,43PFM 48435 05729,0.7,1.1,180.0,3,15,--.--,--.--,,--.--,--.--,--.--,0,0,--.--,--.--,0,1.8,-2.2,-0.3,-0.0,0.0,0.0,--.--,--.--,--.--,--.--,--.--,--.--,--.--,--.--,--.--,--.--,--.--,--.--,45.74,48.81,--.--,0,224,0.0,0.0,0.0,0,0,0,180.0,0.0,0.0
2023-10-11 15:09:59.818,-1.2,1.2,60,0.0,0.0,0.0,0.0,0.0,0.017,-0.0,-0.2,7.3,0.010,0.060,0.000,0.000,0.0,00:00:00,3.3,0,--.--,144,--.--,0,0000:00:00,0,0,0,23.86,0.03,4102,--.--,81,--.--,--:--:--,1,0.72,15:09:58,10/11/2023,--.--,--.--,--.--,--.--,--.--,--.--,--.--,--.--,--.--,--.--,--.--,--.--,0,0.000,0.000,0.000,0.000,0.000,0.000,0.000,0.000,0.000,0.000,0.000,0.000,false,false,false,false,false,false,false,false,false,false,false,false,--.--,--.--,--.--,--.--,--.--,--.--,--.--,--.--,10.0001106,76.3542747,43PFM 48435 05729,0.7,1.1,180.0,3,15,--.--,--.--,,--.--,--.--,--.--,0,0,--.--,--.--,0,1.8,-2.2,-0.2,-0.0,0.0,0.0,--.--,--.--,--.--,--.--,--.--,--.--,--.--,--.--,--.--,--.--,--.--,--.--,45.74,48.81,--.--,0,224,0.0,0.0,0.0,0,0,0,180.0,0.0,0.0
2023-10-11 15:10:00.816,-1.2,1.2,60,0.0,0.0,0.0,0.0,0.0,0.022,-0.0,-0.2,7.3,0.020,0.010,0.000,0.000,0.0,00:00:00,3.3,0,--.--,144,--.--,0,0000:00:00,0,0,0,23.86,0.03,4102,--.--,81,--.--,--:--:--,1,0.72,15:09:59,10/11/2023,--.--,--.--,--.--,--.--,--.--,--.--,--.--,--.--,--.--,--.--,--.--,--.--,0,0.000,0.000,0.000,0.000,0.000,0.000,0.000,0.000,0.000,0.000,0.000,0.000,false,false,false,false,false,false,false,false,false,false,false,false,--.--,--.--,--.--,--.--,--.--,--.--,--.--,--.--,10.0001101,76.3542750,43PFM 48435 05729,0.7,1.1,116.6,3,15,--.--,--.--,,--.--,--.--,--.--,0,0,--.--,--.--,0,1.8,-2.2,-0.2,-0.0,0.0,0.0,--.--,--.--,--.--,--.--,--.--,--.--,--.--,--.--,--.--,--.--,--.--,--.--,45.72,48.85,--.--,0,224,0.0,0.0,0.0,0,0,0,180.0,0.0,0.0
2023-10-11 15:10:01.817,-1.2,1.2,60,0.0,0.0,0.0,0.0,0.0,0.022,-0.0,-0.2,7.3,0.040,0.010,0.000,0.000,0.0,00:00:00,3.2,0,--.--,144,--.--,0,0000:00:00,0,0,0,23.88,0.03,4102,--.--,81,--.--,--:--:--,1,0.72,15:10:00,10/11/2023,--.--,--.--,--.--,--.--,--.--,--.--,--.--,--.--,--.--,--.--,--.--,--.--,0,0.000,0.000,0.000,0.000,0.000,0.000,0.000,0.000,0.000,0.000,0.000,0.000,false,false,false,false,false,false,false,false,false,false,false,false,--.--,--.--,--.--,--.--,--.--,--.--,--.--,--.--,10.0001101,76.3542750,43PFM 48435 05729,0.7,1.1,116.6,3,15,--.--,--.--,,--.--,--.--,--.--,0,0,--.--,--.--,0,1.7,-2.1,-0.2,-0.0,0.0,0.0,--.--,--.--,--.--,--.--,--.--,--.--,--.--,--.--,--.--,--.--,--.--,--.--,45.72,48.85,--.--,0,224,0.0,0.0,0.0,0,0,0,180.0,0.0,0.0
2023-10-11 15:10:02.816,-1.2,1.2,60,0.0,0.0,0.0,0.0,0.0,0.016,-0.0,-0.2,7.3,0.020,0.040,0.000,0.000,0.0,00:00:00,3.2,0,--.--,144,--.--,0,0000:00:00,0,0,0,23.88,0.02,4102,--.--,81,--.--,--:--:--,1,0.48,15:10:01,10/11/2023,--.--,--.--,--.--,--.--,--.--,--.--,--.--,--.--,--.--,--.--,--.--,--.--,0,0.000,0.000,0.000,0.000,0.000,0.000,0.000,0.000,0.000,0.000,0.000,0.000,false,false,false,false,false,false,false,false,false,false,false,false,--.--,--.--,--.--,--.--,--.--,--.--,--.--,--.--,10.0001097,76.3542753,43PFM 48435 05729,0.7,1.1,113.2,3,15,--.--,--.--,,--.--,--.--,--.--,0,0,--.--,--.--,0,1.7,-2.1,-0.2,-0.0,0.0,0.0,--.--,--.--,--.--,--.--,--.--,--.--,--.--,--.--,--.--,--.--,--.--,--.--,45.73,48.87,--.--,0,224,0.0,0.0,0.0,0,0,0,180.0,0.0,0.0
2023-10-11 15:10:03.818,-1.2,1.2,60,0.0,0.0,0.0,0.0,0.0,0.016,-0.0,-0.2,7.3,-0.010,0.040,0.000,0.000,0.0,00:00:00,3.1,0,--.--,144,--.--,0,0000:00:00,0,0,0,23.89,0.03,4102,--.--,81,--.--,--:--:--,1,0.72,15:10:02,10/11/2023,--.--,--.--,--.--,--.--,--.--,--.--,--.--,--.--,--.--,--.--,--.--,--.--,0,0.000,0.000,0.000,0.000,0.000,0.000,0.000,0.000,0.000,0.000,0.000,0.000,false,false,false,false,false,false,false,false,false,false,false,false,--.--,--.--,--.--,--.--,--.--,--.--,--.--,--.--,10.0001097,76.3542753,43PFM 48435 05729,0.7,1.1,113.2,3,15,--.--,--.--,,--.--,--.--,--.--,0,0,--.--,--.--,0,1.6,-2.1,-0.2,-0.0,0.0,0.0,--.--,--.--,--.--,--.--,--.--,--.--,--.--,--.--,--.--,--.--,--.--,--.--,45.73,48.87,--.--,0,224,0.0,0.0,0.0,0,0,0,180.0,0.0,0.0
2023-10-11 15:10:04.820,-1.2,1.2,60,0.0,0.0,0.0,0.0,0.0,0.013,-0.0,-0.2,7.3,-0.020,-0.020,0.000,0.000,0.0,00:00:00,3.1,0,--.--,144,--.--,0,0000:00:00,0,0,0,23.89,0.03,4102,--.--,81,--.--,--:--:--,1,0.72,15:10:03,10/11/2023,--.--,--.--,--.--,--.--,--.--,--.--,--.--,--.--,--.--,--.--,--.--,--.--,0,0.000,0.000,0.000,0.000,0.000,0.000,0.000,0.000,0.000,0.000,0.000,0.000,false,false,false,false,false,false,false,false,false,false,false,false,--.--,--.--,--.--,--.--,--.--,--.--,--.--,--.--,10.0001093,76.3542756,43PFM 48435 05729,0.7,1.1,298.6,3,15,--.--,--.--,,--.--,--.--,--.--,0,0,--.--,--.--,0,1.6,-2.1,-0.2,-0.0,0.0,0.0,--.--,--.--,--.--,--.--,--.--,--.--,--.--,--.--,--.--,--.--,--.--,--.--,45.73,48.90,--.--,0,224,0.0,0.0,0.0,0,0,0,180.0,0.0,0.0
2023-10-11 15:10:05.816,-1.2,1.2,60,0.0,0.0,0.0,0.0,0.0,0.013,-0.0,-0.2,7.3,-0.010,-0.020,0.000,0.000,0.0,00:00:00,3.1,0,--.--,144,--.--,0,0000:00:00,0,0,0,23.88,0.02,4102,--.--,81,--.--,--:--:--,1,0.48,15:10:04,10/11/2023,--.--,--.--,--.--,--.--,--.--,--.--,--.--,--.--,--.--,--.--,--.--,--.--,0,0.000,0.000,0.000,0.000,0.000,0.000,0.000,0.000,0.000,0.000,0.000,0.000,false,false,false,false,false,false,false,false,false,false,false,false,--.--,--.--,--.--,--.--,--.--,--.--,--.--,--.--,10.0001093,76.3542756,43PFM 48435 05729,0.7,1.1,298.6,3,15,--.--,--.--,,--.--,--.--,--.--,0,0,--.--,--.--,0,1.6,-2.1,-0.2,0.0,-0.0,0.0,--.--,--.--,--.--,--.--,--.--,--.--,--.--,--.--,--.--,--.--,--.--,--.--,45.73,48.90,--.--,0,224,0.0,0.0,0.0,0,0,0,180.0,0.0,0.0
2023-10-11 15:10:06.817,-1.2,1.2,60,0.0,0.0,0.0,0.0,0.0,0.016,-0.0,-0.2,7.3,-0.030,-0.020,0.000,0.000,0.0,00:00:00,3.1,0,--.--,144,--.--,0,0000:00:00,0,0,0,23.88,0.03,4102,--.--,81,--.--,--:--:--,1,0.72,15:10:05,10/11/2023,--.--,--.--,--.--,--.--,--.--,--.--,--.--,--.--,--.--,--.--,--.--,--.--,0,0.000,0.000,0.000,0.000,0.000,0.000,0.000,0.000,0.000,0.000,0.000,0.000,false,false,false,false,false,false,false,false,false,false,false,false,--.--,--.--,--.--,--.--,--.--,--.--,--.--,--.--,10.0001090,76.3542757,43PFM 48435 05729,0.7,1.1,227.5,3,15,--.--,--.--,,--.--,--.--,--.--,0,0,--.--,--.--,0,1.6,-2.1,-0.2,0.0,-0.0,0.0,--.--,--.--,--.--,--.--,--.--,--.--,--.--,--.--,--.--,--.--,--.--,--.--,45.74,48.92,--.--,0,224,0.0,0.0,0.0,0,0,0,180.0,0.0,0.0
2023-10-11 15:10:07.817,-1.2,1.2,60,0.0,0.0,0.0,0.0,0.0,0.016,-0.0,-0.3,7.2,-0.050,-0.020,0.000,0.000,0.0,00:00:00,3.0,0,--.--,144,--.--,0,0000:00:00,0,0,0,23.89,0.03,4102,--.--,81,--.--,--:--:--,1,0.72,15:10:06,10/11/2023,--.--,--.--,--.--,--.--,--.--,--.--,--.--,--.--,--.--,--.--,--.--,--.--,0,0.000,0.000,0.000,0.000,0.000,0.000,0.000,0.000,0.000,0.000,0.000,0.000,false,false,false,false,false,false,false,false,false,false,false,false,--.--,--.--,--.--,--.--,--.--,--.--,--.--,--.--,10.0001090,76.3542757,43PFM 48435 05729,0.7,1.1,227.5,3,15,--.--,--.--,,--.--,--.--,--.--,0,0,--.--,--.--,0,1.6,-2.0,-0.2,-0.0,-0.0,0.0,--.--,--.--,--.--,--.--,--.--,--.--,--.--,--.--,--.--,--.--,--.--,--.--,45.74,48.92,--.--,0,224,0.0,0.0,0.0,0,0,0,180.0,0.0,0.0
2023-10-11 15:10:08.818,-1.2,1.2,60,0.0,0.0,0.0,0.0,0.0,0.011,-0.0,-0.3,7.2,-0.070,-0.060,0.000,0.000,0.0,00:00:00,3.0,0,--.--,144,--.--,0,0000:00:00,0,0,0,23.89,0.03,4102,--.--,81,--.--,--:--:--,1,0.72,15:10:07,10/11/2023,--.--,--.--,--.--,--.--,--.--,--.--,--.--,--.--,--.--,--.--,--.--,--.--,0,0.000,0.000,0.000,0.000,0.000,0.000,0.000,0.000,0.000,0.000,0.000,0.000,false,false,false,false,false,false,false,false,false,false,false,false,--.--,--.--,--.--,--.--,--.--,--.--,--.--,--.--,10.0001087,76.3542761,43PFM 48435 05729,0.7,1.1,108.4,3,15,--.--,--.--,,--.--,--.--,--.--,0,0,--.--,--.--,0,1.6,-2.0,-0.2,-0.0,-0.0,0.0,--.--,--.--,--.--,--.--,--.--,--.--,--.--,--.--,--.--,--.--,--.--,--.--,45.73,48.95,--.--,0,224,0.0,0.0,0.0,0,0,0,180.0,0.0,0.0
2023-10-11 15:10:09.819,-1.2,1.2,60,0.0,0.0,0.0,0.0,0.0,0.011,-0.0,-0.3,7.2,-0.080,-0.060,0.000,0.000,0.0,00:00:00,3.0,0,--.--,145,--.--,0,0000:00:00,0,0,0,23.91,0.03,4102,--.--,81,--.--,--:--:--,1,0.72,15:10:08,10/11/2023,--.--,--.--,--.--,--.--,--.--,--.--,--.--,--.--,--.--,--.--,--.--,--.--,0,0.000,0.000,0.000,0.000,0.000,0.000,0.000,0.000,0.000,0.000,0.000,0.000,false,false,false,false,false,false,false,false,false,false,false,false,--.--,--.--,--.--,--.--,--.--,--.--,--.--,--.--,10.0001087,76.3542761,43PFM 48435 05729,0.7,1.1,108.4,3,15,--.--,--.--,,--.--,--.--,--.--,0,0,--.--,--.--,0,1.5,-2.0,-0.1,-0.0,0.0,0.0,--.--,--.--,--.--,--.--,--.--,--.--,--.--,--.--,--.--,--.--,--.--,--.--,45.73,48.95,--.--,0,224,0.0,0.0,0.0,0,0,0,180.0,0.0,0.0
2023-10-11 15:10:10.817,-1.2,1.2,60,0.0,0.0,0.0,0.0,0.0,0.015,-0.0,-0.3,7.2,-0.090,-0.090,0.000,0.000,0.0,00:00:00,3.0,0,--.--,145,--.--,0,0000:00:00,0,0,0,23.88,0.03,4102,--.--,81,--.--,--:--:--,1,0.72,15:10:09,10/11/2023,--.--,--.--,--.--,--.--,--.--,--.--,--.--,--.--,--.--,--.--,--.--,--.--,0,0.000,0.000,0.000,0.000,0.000,0.000,0.000,0.000,0.000,0.000,0.000,0.000,false,false,false,false,false,false,false,false,false,false,false,false,--.--,--.--,--.--,--.--,--.--,--.--,--.--,--.--,10.0001086,76.3542763,43PFM 48435 05729,0.7,1.1,142.4,3,15,--.--,--.--,,--.--,--.--,--.--,0,0,--.--,--.--,0,1.5,-2.0,-0.1,0.0,0.0,0.0,--.--,--.--,--.--,--.--,--.--,--.--,--.--,--.--,--.--,--.--,--.--,--.--,45.72,48.99,--.--,0,224,0.0,0.0,0.0,0,0,0,180.0,0.0,0.0
2023-10-11 15:10:11.818,-1.2,1.2,60,0.0,0.0,0.0,0.0,0.0,0.015,-0.0,-0.3,7.2,-0.110,-0.090,0.000,0.000,0.0,00:00:00,3.0,0,--.--,145,--.--,0,0000:00:00,0,0,0,23.87,0.03,4102,--.--,81,--.--,--:--:--,1,0.72,15:10:10,10/11/2023,--.--,--.--,--.--,--.--,--.--,--.--,--.--,--.--,--.--,--.--,--.--,--.--,0,0.000,0.000,0.000,0.000,0.000,0.000,0.000,0.000,0.000,0.000,0.000,0.000,false,false,false,false,false,false,false,false,false,false,false,false,--.--,--.--,--.--,--.--,--.--,--.--,--.--,--.--,10.0001086,76.3542763,43PFM 48435 05729,0.7,1.1,142.4,3,15,--.--,--.--,,--.--,--.--,--.--,0,0,--.--,--.--,0,1.5,-2.0,-0.1,0.0,-0.0,0.0,--.--,--.--,--.--,--.--,--.--,--.--,--.--,--.--,--.--,--.--,--.--,--.--,45.72,48.99,--.--,0,224,0.0,0.0,0.0,0,0,0,180.0,0.0,0.0
2023-10-11 15:10:12.816,-1.2,1.2,60,0.0,0.0,0.0,0.0,0.0,0.014,-0.0,-0.3,7.2,-0.110,-0.100,0.000,0.000,0.0,00:00:00,3.0,0,--.--,145,--.--,0,0000:00:00,0,0,0,23.87,0.03,4102,--.--,81,--.--,--:--:--,1,0.72,15:10:11,10/11/2023,--.--,--.--,--.--,--.--,--.--,--.--,--.--,--.--,--.--,--.--,--.--,--.--,0,0.000,0.000,0.000,0.000,0.000,0.000,0.000,0.000,0.000,0.000,0.000,0.000,false,false,false,false,false,false,false,false,false,false,false,false,--.--,--.--,--.--,--.--,--.--,--.--,--.--,--.--,10.0001084,76.3542765,43PFM 48435 05729,0.7,1.1,315.0,3,15,--.--,--.--,,--.--,--.--,--.--,0,0,--.--,--.--,0,1.5,-2.0,-0.1,0.0,-0.0,0.0,--.--,--.--,--.--,--.--,--.--,--.--,--.--,--.--,--.--,--.--,--.--,--.--,45.72,49.02,--.--,0,224,0.0,0.0,0.0,0,0,0,180.0,0.0,0.0
2023-10-11 15:10:13.818,-1.2,1.2,60,0.0,0.0,0.0,0.0,0.0,0.014,-0.0,-0.3,7.2,-0.100,-0.100,0.000,0.000,0.0,00:00:00,2.9,0,--.--,145,--.--,0,0000:00:00,0,0,0,23.87,0.03,4102,--.--,81,--.--,--:--:--,1,0.72,15:10:12,10/11/2023,--.--,--.--,--.--,--.--,--.--,--.--,--.--,--.--,--.--,--.--,--.--,--.--,0,0.000,0.000,0.000,0.000,0.000,0.000,0.000,0.000,0.000,0.000,0.000,0.000,false,false,false,false,false,false,false,false,false,false,false,false,--.--,--.--,--.--,--.--,--.--,--.--,--.--,--.--,10.0001084,76.3542765,43PFM 48435 05729,0.7,1.1,315.0,3,15,--.--,--.--,,--.--,--.--,--.--,0,0,--.--,--.--,0,1.5,-1.9,-0.1,-0.0,0.0,0.0,--.--,--.--,--.--,--.--,--.--,--.--,--.--,--.--,--.--,--.--,--.--,--.--,45.72,49.02,--.--,0,224,0.0,0.0,0.0,0,0,0,180.0,0.0,0.0
2023-10-11 15:10:14.818,-1.2,1.2,60,0.0,0.0,0.0,0.0,0.0,0.006,-0.0,-0.3,7.2,-0.080,-0.090,0.000,0.000,0.0,00:00:00,2.9,0,--.--,145,--.--,0,0001:24:26,0,0,0,23.83,0.01,4102,--.--,81,--.--,--:--:--,1,0.24,15:10:13,10/11/2023,--.--,--.--,--.--,--.--,--.--,--.--,--.--,--.--,--.--,--.--,--.--,--.--,0,0.000,0.000,0.000,0.000,0.000,0.000,0.000,0.000,0.000,0.000,0.000,0.000,false,false,false,false,false,false,false,false,false,false,false,false,--.--,--.--,--.--,--.--,--.--,--.--,--.--,--.--,10.0001084,76.3542765,43PFM 48435 05729,0.7,1.1,138.8,3,15,--.--,--.--,,--.--,--.--,--.--,0,0,--.--,--.--,0,1.5,-1.9,-0.1,0.0,-0.0,0.0,--.--,--.--,--.--,--.--,--.--,--.--,--.--,--.--,--.--,--.--,--.--,--.--,45.73,49.04,--.--,0,224,0.0,0.0,0.0,0,0,0,180.0,0.0,0.0
2023-10-11 15:10:15.829,-1.2,1.2,60,0.0,0.0,0.0,0.0,0.0,0.015,-0.0,-0.3,7.2,-0.080,-0.080,0.000,0.000,0.0,00:00:00,2.9,0,--.--,145,--.--,0,0001:24:26,0,0,0,23.86,0.02,4102,--.--,81,--.--,--:--:--,1,0.48,15:10:14,10/11/2023,--.--,--.--,--.--,--.--,--.--,--.--,--.--,--.--,--.--,--.--,--.--,--.--,0,0.000,0.000,0.000,0.000,0.000,0.000,0.000,0.000,0.000,0.000,0.000,0.000,false,false,false,false,false,false,false,false,false,false,false,false,--.--,--.--,--.--,--.--,--.--,--.--,--.--,--.--,10.0001085,76.3542763,43PFM 48435 05729,0.7,1.1,194.0,3,15,--.--,--.--,,--.--,--.--,--.--,0,0,--.--,--.--,0,1.5,-2.0,-0.1,0.0,-0.0,0.0,--.--,--.--,--.--,--.--,--.--,--.--,--.--,--.--,--.--,--.--,--.--,--.--,45.74,49.06,--.--,0,224,0.0,0.0,0.0,0,0,0,180.0,0.0,0.0
2023-10-11 15:10:16.816,-1.2,1.2,60,0.0,0.0,0.0,0.0,0.0,0.020,-0.0,-0.3,7.2,-0.080,-0.080,0.000,0.000,0.0,00:00:00,2.9,0,--.--,145,--.--,0,0001:24:26,0,0,0,23.88,0.03,4102,--.--,81,--.--,--:--:--,1,0.72,15:10:15,10/11/2023,--.--,--.--,--.--,--.--,--.--,--.--,--.--,--.--,--.--,--.--,--.--,--.--,0,0.000,0.000,0.000,0.000,0.000,0.000,0.000,0.000,0.000,0.000,0.000,0.000,false,false,false,false,false,false,false,false,false,false,false,false,--.--,--.--,--.--,--.--,--.--,--.--,--.--,--.--,10.0001086,76.3542763,43PFM 48435 05729,0.7,1.1,216.9,3,15,--.--,--.--,,--.--,--.--,--.--,0,0,--.--,--.--,0,1.5,-2.0,-0.1,0.0,-0.0,0.0,--.--,--.--,--.--,--.--,--.--,--.--,--.--,--.--,--.--,--.--,--.--,--.--,45.74,49.07,--.--,0,224,0.0,0.0,0.0,0,0,0,180.0,0.0,0.0
2023-10-11 15:10:17.832,-1.2,1.2,60,0.0,0.0,0.0,0.0,0.0,0.019,-0.0,-0.3,7.2,-0.080,-0.080,0.000,0.000,0.0,00:00:00,2.9,0,--.--,145,--.--,0,0001:24:26,0,0,0,23.83,0.01,4102,--.--,81,--.--,--:--:--,1,0.24,15:10:16,10/11/2023,--.--,--.--,--.--,--.--,--.--,--.--,--.--,--.--,--.--,--.--,--.--,--.--,0,0.000,0.000,0.000,0.000,0.000,0.000,0.000,0.000,0.000,0.000,0.000,0.000,false,false,false,false,false,false,false,false,false,false,false,false,--.--,--.--,--.--,--.--,--.--,--.--,--.--,--.--,10.0001087,76.3542762,43PFM 48435 05729,0.7,1.1,159.3,3,15,--.--,--.--,,--.--,--.--,--.--,0,0,--.--,--.--,0,1.5,-2.0,-0.1,0.0,-0.0,0.0,--.--,--.--,--.--,--.--,--.--,--.--,--.--,--.--,--.--,--.--,--.--,--.--,45.73,49.08,--.--,0,224,0.0,0.0,0.0,0,0,0,180.0,0.0,0.0
2023-10-11 15:10:18.849,-1.2,1.2,60,0.0,0.0,0.0,0.0,0.0,0.012,0.0,-0.2,7.3,-0.040,-0.050,0.000,0.000,0.0,00:00:00,2.9,0,--.--,145,--.--,0,0001:24:26,0,0,0,23.85,0.01,4102,--.--,81,--.--,--:--:--,1,0.24,15:10:17,10/11/2023,--.--,--.--,--.--,--.--,--.--,--.--,--.--,--.--,--.--,--.--,--.--,--.--,0,0.000,0.000,0.000,0.000,0.000,0.000,0.000,0.000,0.000,0.000,0.000,0.000,false,false,false,false,false,false,false,false,false,false,false,false,--.--,--.--,--.--,--.--,--.--,--.--,--.--,--.--,10.0001087,76.3542760,43PFM 48435 05729,0.7,1.1,85.9,3,15,--.--,--.--,,--.--,--.--,--.--,0,0,--.--,--.--,0,1.5,-2.0,-0.2,0.0,-0.0,-0.0,--.--,--.--,--.--,--.--,--.--,--.--,--.--,--.--,--.--,--.--,--.--,--.--,45.73,49.09,--.--,0,224,0.0,0.0,0.0,0,0,0,180.0,0.0,0.0
2023-10-11 15:10:19.840,-1.2,1.2,60,0.0,0.0,0.0,0.0,0.0,0.008,-0.0,-0.3,7.2,-0.060,-0.050,0.000,0.000,0.0,00:00:00,2.9,0,--.--,145,--.--,0,0001:24:26,0,0,0,23.88,0.03,4102,--.--,81,--.--,--:--:--,1,0.72,15:10:18,10/11/2023,--.--,--.--,--.--,--.--,--.--,--.--,--.--,--.--,--.--,--.--,--.--,--.--,0,0.000,0.000,0.000,0.000,0.000,0.000,0.000,0.000,0.000,0.000,0.000,0.000,false,false,false,false,false,false,false,false,false,false,false,false,--.--,--.--,--.--,--.--,--.--,--.--,--.--,--.--,10.0001088,76.3542760,43PFM 48435 05729,0.7,1.1,331.5,3,15,--.--,--.--,,--.--,--.--,--.--,0,0,--.--,--.--,0,1.5,-2.0,-0.2,0.0,-0.0,0.0,--.--,--.--,--.--,--.--,--.--,--.--,--.--,--.--,--.--,--.--,--.--,--.--,45.72,49.09,--.--,0,224,0.0,0.0,0.0,0,0,0,180.0,0.0,0.0
2023-10-11 15:10:20.847,-1.2,1.2,60,0.0,0.0,0.0,0.0,0.0,0.018,-0.0,-0.3,7.2,-0.070,-0.070,0.000,0.000,0.0,00:00:00,3.0,0,--.--,145,--.--,0,0001:24:26,0,0,0,23.84,0.01,4102,--.--,81,--.--,--:--:--,1,0.24,15:10:19,10/11/2023,--.--,--.--,--.--,--.--,--.--,--.--,--.--,--.--,--.--,--.--,--.--,--.--,0,0.000,0.000,0.000,0.000,0.000,0.000,0.000,0.000,0.000,0.000,0.000,0.000,false,false,false,false,false,false,false,false,false,false,false,false,--.--,--.--,--.--,--.--,--.--,--.--,--.--,--.--,10.0001091,76.3542760,43PFM 48435 05729,0.7,1.1,118.8,3,15,--.--,--.--,,--.--,--.--,--.--,0,0,--.--,--.--,0,1.5,-2.0,-0.1,0.0,-0.0,0.0,--.--,--.--,--.--,--.--,--.--,--.--,--.--,--.--,--.--,--.--,--.--,--.--,45.72,49.11,--.--,0,224,0.0,0.0,0.0,0,0,0,180.0,0.0,0.0
2023-10-11 15:10:21.841,-1.2,1.2,60,0.0,0.0,0.0,0.0,0.0,0.017,-0.0,-0.3,7.2,-0.080,-0.070,0.000,0.000,0.0,00:00:00,3.0,0,--.--,145,--.--,0,0001:24:26,0,0,0,23.83,0.01,4102,--.--,81,--.--,--:--:--,1,0.24,15:10:20,10/11/2023,--.--,--.--,--.--,--.--,--.--,--.--,--.--,--.--,--.--,--.--,--.--,--.--,0,0.000,0.000,0.000,0.000,0.000,0.000,0.000,0.000,0.000,0.000,0.000,0.000,false,false,false,false,false,false,false,false,false,false,false,false,--.--,--.--,--.--,--.--,--.--,--.--,--.--,--.--,10.0001091,76.3542760,43PFM 48435 05729,0.7,1.1,284.0,3,15,--.--,--.--,,--.--,--.--,--.--,0,0,--.--,--.--,0,1.6,-2.0,-0.1,0.0,-0.0,0.0,--.--,--.--,--.--,--.--,--.--,--.--,--.--,--.--,--.--,--.--,--.--,--.--,45.72,49.12,--.--,0,224,0.0,0.0,0.0,0,0,0,180.0,0.0,0.0
2023-10-11 15:10:22.833,-1.2,1.2,60,0.0,0.0,0.0,0.0,0.0,0.019,-0.0,-0.3,7.2,-0.100,-0.100,0.000,0.000,0.0,00:00:00,3.0,0,--.--,145,--.--,0,0001:24:26,0,0,0,23.89,0.02,4102,--.--,81,--.--,--:--:--,1,0.48,15:10:21,10/11/2023,--.--,--.--,--.--,--.--,--.--,--.--,--.--,--.--,--.--,--.--,--.--,--.--,0,0.000,0.000,0.000,0.000,0.000,0.000,0.000,0.000,0.000,0.000,0.000,0.000,false,false,false,false,false,false,false,false,false,false,false,false,--.--,--.--,--.--,--.--,--.--,--.--,--.--,--.--,10.0001092,76.3542760,43PFM 48435 05729,0.7,1.1,7.6,3,15,--.--,--.--,,--.--,--.--,--.--,0,0,--.--,--.--,0,1.6,-2.0,-0.1,0.0,-0.0,0.0,--.--,--.--,--.--,--.--,--.--,--.--,--.--,--.--,--.--,--.--,--.--,--.--,45.72,49.12,--.--,0,224,0.0,0.0,0.0,0,0,0,180.0,0.0,0.0
2023-10-11 15:10:23.833,-1.1,1.2,60,0.0,0.0,0.0,0.0,0.0,0.016,-0.0,-0.3,7.2,-0.110,-0.110,0.000,0.000,0.0,00:00:00,3.0,0,--.--,145,--.--,0,0001:24:26,0,0,0,23.83,0.01,4102,--.--,81,--.--,--:--:--,1,0.24,15:10:22,10/11/2023,--.--,--.--,--.--,--.--,--.--,--.--,--.--,--.--,--.--,--.--,--.--,--.--,0,0.000,0.000,0.000,0.000,0.000,0.000,0.000,0.000,0.000,0.000,0.000,0.000,false,false,false,false,false,false,false,false,false,false,false,false,--.--,--.--,--.--,--.--,--.--,--.--,--.--,--.--,10.0001093,76.3542759,43PFM 48435 05729,0.7,1.1,135.0,3,15,--.--,--.--,,--.--,--.--,--.--,0,0,--.--,--.--,0,1.6,-2.0,-0.1,0.0,0.0,0.0,--.--,--.--,--.--,--.--,--.--,--.--,--.--,--.--,--.--,--.--,--.--,--.--,45.74,49.14,--.--,0,224,0.0,0.0,0.0,0,0,0,180.0,0.0,0.0
2023-10-11 15:10:24.834,-1.1,1.2,60,0.0,0.0,0.0,0.0,0.0,0.014,-0.0,-0.3,7.2,-0.100,-0.110,0.000,0.000,0.0,00:00:00,3.0,0,--.--,145,--.--,0,0001:24:26,0,0,0,23.87,0.02,4102,--.--,81,--.--,--:--:--,1,0.48,15:10:23,10/11/2023,--.--,--.--,--.--,--.--,--.--,--.--,--.--,--.--,--.--,--.--,--.--,--.--,0,0.000,0.000,0.000,0.000,0.000,0.000,0.000,0.000,0.000,0.000,0.000,0.000,false,false,false,false,false,false,false,false,false,false,false,false,--.--,--.--,--.--,--.--,--.--,--.--,--.--,--.--,10.0001093,76.3542759,43PFM 48435 05729,0.7,1.1,301.8,3,15,--.--,--.--,,--.--,--.--,--.--,0,0,--.--,--.--,0,1.6,-2.0,-0.1,0.0,0.0,0.0,--.--,--.--,--.--,--.--,--.--,--.--,--.--,--.--,--.--,--.--,--.--,--.--,45.73,49.14,--.--,0,224,0.0,0.0,0.0,0,0,0,180.0,0.0,0.0
2023-10-11 15:10:25.837,-1.1,1.2,60,0.0,0.0,0.0,0.0,0.0,0.012,-0.0,-0.3,7.2,-0.090,-0.090,0.000,0.000,0.0,00:00:00,3.0,0,--.--,145,--.--,0,0001:24:26,0,0,0,23.83,0.02,4102,--.--,81,--.--,--:--:--,1,0.48,15:10:24,10/11/2023,--.--,--.--,--.--,--.--,--.--,--.--,--.--,--.--,--.--,--.--,--.--,--.--,0,0.000,0.000,0.000,0.000,0.000,0.000,0.000,0.000,0.000,0.000,0.000,0.000,false,false,false,false,false,false,false,false,false,false,false,false,--.--,--.--,--.--,--.--,--.--,--.--,--.--,--.--,10.0001094,76.3542759,43PFM 48435 05729,0.7,1.1,352.1,3,15,--.--,--.--,,--.--,--.--,--.--,0,0,--.--,--.--,0,1.6,-2.0,-0.1,-0.0,0.0,0.0,--.--,--.--,--.--,--.--,--.--,--.--,--.--,--.--,--.--,--.--,--.--,--.--,45.73,49.16,--.--,0,224,0.0,0.0,0.0,0,0,0,180.0,0.0,0.0
2023-10-11 15:10:26.833,-1.1,1.2,60,0.0,0.0,0.0,0.0,0.0,0.013,-0.0,-0.3,7.2,-0.090,-0.090,0.000,0.000,0.0,00:00:00,3.0,0,--.--,145,--.--,0,0001:24:26,0,0,0,23.86,0.02,4102,--.--,81,--.--,--:--:--,1,0.48,15:10:25,10/11/2023,--.--,--.--,--.--,--.--,--.--,--.--,--.--,--.--,--.--,--.--,--.--,--.--,0,0.000,0.000,0.000,0.000,0.000,0.000,0.000,0.000,0.000,0.000,0.000,0.000,false,false,false,false,false,false,false,false,false,false,false,false,--.--,--.--,--.--,--.--,--.--,--.--,--.--,--.--,10.0001095,76.3542759,43PFM 48435 05729,0.7,1.1,18.4,3,15,--.--,--.--,,--.--,--.--,--.--,0,0,--.--,--.--,0,1.6,-2.0,-0.1,0.0,0.0,0.0,--.--,--.--,--.--,--.--,--.--,--.--,--.--,--.--,--.--,--.--,--.--,--.--,45.72,49.17,--.--,0,224,0.0,0.0,0.0,0,0,0,180.0,0.0,0.0
2023-10-11 15:10:27.835,-1.1,1.2,60,0.0,0.0,0.0,0.0,0.0,0.005,-0.0,-0.3,7.2,-0.060,-0.060,0.000,0.000,0.0,00:00:00,3.0,0,--.--,145,--.--,0,0001:24:26,0,0,0,23.84,0.02,4102,--.--,81,--.--,--:--:--,1,0.48,15:10:26,10/11/2023,--.--,--.--,--.--,--.--,--.--,--.--,--.--,--.--,--.--,--.--,--.--,--.--,0,0.000,0.000,0.000,0.000,0.000,0.000,0.000,0.000,0.000,0.000,0.000,0.000,false,false,false,false,false,false,false,false,false,false,false,false,--.--,--.--,--.--,--.--,--.--,--.--,--.--,--.--,10.0001097,76.3542757,43PFM 48435 05729,0.7,1.1,271.6,3,15,--.--,--.--,,--.--,--.--,--.--,0,0,--.--,--.--,0,1.6,-2.0,-0.2,0.0,-0.0,0.0,--.--,--.--,--.--,--.--,--.--,--.--,--.--,--.--,--.--,--.--,--.--,--.--,45.72,49.18,--.--,0,224,0.0,0.0,0.0,0,0,0,180.0,0.0,0.0
2023-10-11 15:10:28.832,-1.1,1.2,60,0.0,0.0,0.0,0.0,0.0,0.008,-0.0,-0.3,7.2,-0.060,-0.060,0.000,0.000,0.0,00:00:00,3.0,0,--.--,145,--.--,0,0001:24:26,0,0,0,23.83,0.01,4102,--.--,81,--.--,--:--:--,1,0.24,15:10:27,10/11/2023,--.--,--.--,--.--,--.--,--.--,--.--,--.--,--.--,--.--,--.--,--.--,--.--,0,0.000,0.000,0.000,0.000,0.000,0.000,0.000,0.000,0.000,0.000,0.000,0.000,false,false,false,false,false,false,false,false,false,false,false,false,--.--,--.--,--.--,--.--,--.--,--.--,--.--,--.--,10.0001097,76.3542757,43PFM 48435 05729,0.7,1.1,231.3,3,15,--.--,--.--,,--.--,--.--,--.--,0,0,--.--,--.--,0,1.6,-2.0,-0.2,-0.0,-0.0,0.0,--.--,--.--,--.--,--.--,--.--,--.--,--.--,--.--,--.--,--.--,--.--,--.--,45.72,49.19,--.--,0,224,0.0,0.0,0.0,0,0,0,180.0,0.0,0.0
2023-10-11 15:10:29.834,-1.1,1.2,60,0.0,0.0,0.0,0.0,0.0,0.015,-0.0,-0.3,7.2,-0.050,-0.050,0.000,0.000,0.0,00:00:00,3.0,0,--.--,145,--.--,0,0001:24:26,0,0,0,23.87,0.02,4102,--.--,81,--.--,--:--:--,1,0.48,15:10:28,10/11/2023,--.--,--.--,--.--,--.--,--.--,--.--,--.--,--.--,--.--,--.--,--.--,--.--,0,0.000,0.000,0.000,0.000,0.000,0.000,0.000,0.000,0.000,0.000,0.000,0.000,false,false,false,false,false,false,false,false,false,false,false,false,--.--,--.--,--.--,--.--,--.--,--.--,--.--,--.--,10.0001097,76.3542756,43PFM 48435 05729,0.7,1.1,159.8,3,15,--.--,--.--,,--.--,--.--,--.--,0,0,--.--,--.--,0,1.6,-2.0,-0.2,-0.0,-0.0,0.0,--.--,--.--,--.--,--.--,--.--,--.--,--.--,--.--,--.--,--.--,--.--,--.--,45.73,49.21,--.--,0,224,0.0,0.0,0.0,0,0,0,180.0,0.0,0.0
2023-10-11 15:10:30.852,-1.1,1.2,60,0.0,0.0,0.0,0.0,0.0,0.012,-0.0,-0.3,7.2,-0.080,-0.070,0.000,0.000,0.0,00:00:00,3.0,0,--.--,145,--.--,0,0001:24:26,0,0,0,23.88,0.02,4102,--.--,81,--.--,--:--:--,1,0.48,15:10:29,10/11/2023,--.--,--.--,--.--,--.--,--.--,--.--,--.--,--.--,--.--,--.--,--.--,--.--,0,0.000,0.000,0.000,0.000,0.000,0.000,0.000,0.000,0.000,0.000,0.000,0.000,false,false,false,false,false,false,false,false,false,false,false,false,--.--,--.--,--.--,--.--,--.--,--.--,--.--,--.--,10.0001097,76.3542758,43PFM 48435 05729,0.7,1.1,282.8,3,15,--.--,--.--,,--.--,--.--,--.--,0,0,--.--,--.--,0,1.6,-2.0,-0.1,-0.0,0.0,0.0,--.--,--.--,--.--,--.--,--.--,--.--,--.--,--.--,--.--,--.--,--.--,--.--,45.73,49.22,--.--,0,224,0.0,0.0,0.0,0,0,0,180.0,0.0,0.0
2023-10-11 15:10:31.849,-1.1,1.2,60,0.0,0.0,0.0,0.0,0.0,0.014,-0.0,-0.3,7.2,-0.090,-0.090,0.000,0.000,0.0,00:00:00,3.0,0,--.--,145,--.--,0,0001:24:26,0,0,0,23.86,0.02,4102,--.--,81,--.--,--:--:--,1,0.48,15:10:30,10/11/2023,--.--,--.--,--.--,--.--,--.--,--.--,--.--,--.--,--.--,--.--,--.--,--.--,0,0.000,0.000,0.000,0.000,0.000,0.000,0.000,0.000,0.000,0.000,0.000,0.000,false,false,false,false,false,false,false,false,false,false,false,false,--.--,--.--,--.--,--.--,--.--,--.--,--.--,--.--,10.0001098,76.3542757,43PFM 48435 05729,0.7,1.1,191.9,3,15,--.--,--.--,,--.--,--.--,--.--,0,0,--.--,--.--,0,1.6,-2.0,-0.1,0.0,0.0,0.0,--.--,--.--,--.--,--.--,--.--,--.--,--.--,--.--,--.--,--.--,--.--,--.--,45.73,49.22,--.--,0,224,0.0,0.0,0.0,0,0,0,180.0,0.0,0.0
2023-10-11 15:10:32.864,-1.2,1.2,60,0.0,0.0,0.0,0.0,0.0,0.018,-0.0,-0.3,7.2,-0.120,-0.110,0.000,0.000,0.0,00:00:00,3.1,0,--.--,145,--.--,0,0001:24:26,0,0,0,23.90,0.03,4102,--.--,81,--.--,--:--:--,1,0.72,15:10:31,10/11/2023,--.--,--.--,--.--,--.--,--.--,--.--,--.--,--.--,--.--,--.--,--.--,--.--,0,0.000,0.000,0.000,0.000,0.000,0.000,0.000,0.000,0.000,0.000,0.000,0.000,false,false,false,false,false,false,false,false,false,false,false,false,--.--,--.--,--.--,--.--,--.--,--.--,--.--,--.--,10.0001099,76.3542758,43PFM 48435 05729,0.7,1.1,271.7,3,15,--.--,--.--,,--.--,--.--,--.--,0,0,--.--,--.--,0,1.6,-2.0,-0.1,0.0,0.0,0.0,--.--,--.--,--.--,--.--,--.--,--.--,--.--,--.--,--.--,--.--,--.--,--.--,45.73,49.24,--.--,0,224,0.0,0.0,0.0,0,0,0,180.0,0.0,0.0
2023-10-11 15:10:33.868,-1.2,1.2,60,0.0,0.0,0.0,0.0,0.0,0.026,-0.0,-0.3,7.2,-0.150,-0.150,0.000,0.000,0.0,00:00:00,3.1,0,--.--,146,--.--,0,0001:24:26,0,0,0,23.87,0.03,4102,--.--,81,--.--,--:--:--,1,0.72,15:10:32,10/11/2023,--.--,--.--,--.--,--.--,--.--,--.--,--.--,--.--,--.--,--.--,--.--,--.--,0,0.000,0.000,0.000,0.000,0.000,0.000,0.000,0.000,0.000,0.000,0.000,0.000,false,false,false,false,false,false,false,false,false,false,false,false,--.--,--.--,--.--,--.--,--.--,--.--,--.--,--.--,10.0001100,76.3542758,43PFM 48435 05729,0.7,1.1,118.1,3,15,--.--,--.--,,--.--,--.--,--.--,0,0,--.--,--.--,0,1.7,-2.0,-0.1,0.0,-0.0,0.0,--.--,--.--,--.--,--.--,--.--,--.--,--.--,--.--,--.--,--.--,--.--,--.--,45.72,49.25,--.--,0,224,0.0,0.0,0.0,0,0,0,180.0,0.0,0.0
2023-10-11 15:10:34.865,-1.1,1.2,60,0.0,0.0,0.0,0.0,0.0,0.026,-0.0,-0.4,7.1,-0.160,-0.160,0.000,0.000,0.0,00:00:00,3.1,0,--.--,146,--.--,0,0001:24:26,0,0,0,23.91,0.03,4102,--.--,81,--.--,--:--:--,1,0.72,15:10:33,10/11/2023,--.--,--.--,--.--,--.--,--.--,--.--,--.--,--.--,--.--,--.--,--.--,--.--,0,0.000,0.000,0.000,0.000,0.000,0.000,0.000,0.000,0.000,0.000,0.000,0.000,false,false,false,false,false,false,false,false,false,false,false,false,--.--,--.--,--.--,--.--,--.--,--.--,--.--,--.--,10.0001098,76.3542759,43PFM 48435 05729,0.7,1.1,248.4,3,15,--.--,--.--,,--.--,--.--,--.--,0,0,--.--,--.--,0,1.6,-2.0,-0.1,-0.0,0.0,0.0,--.--,--.--,--.--,--.--,--.--,--.--,--.--,--.--,--.--,--.--,--.--,--.--,45.72,49.26,--.--,0,224,0.0,0.0,0.0,0,0,0,180.0,0.0,0.0
2023-10-11 15:10:35.865,-1.1,1.2,60,0.0,0.0,0.0,0.0,0.0,0.028,-0.0,-0.4,7.1,-0.170,-0.170,0.000,0.000,0.0,00:00:00,3.1,0,--.--,145,--.--,0,0001:24:26,0,0,0,23.90,0.03,4102,--.--,81,--.--,--:--:--,1,0.72,15:10:34,10/11/2023,--.--,--.--,--.--,--.--,--.--,--.--,--.--,--.--,--.--,--.--,--.--,--.--,0,0.000,0.000,0.000,0.000,0.000,0.000,0.000,0.000,0.000,0.000,0.000,0.000,false,false,false,false,false,false,false,false,false,false,false,false,--.--,--.--,--.--,--.--,--.--,--.--,--.--,--.--,10.0001096,76.3542760,43PFM 48435 05729,0.7,1.1,263.6,3,15,--.--,--.--,,--.--,--.--,--.--,0,0,--.--,--.--,0,1.6,-2.0,-0.0,-0.0,0.0,0.0,--.--,--.--,--.--,--.--,--.--,--.--,--.--,--.--,--.--,--.--,--.--,--.--,45.73,49.28,--.--,0,224,0.0,0.0,0.0,0,0,0,180.0,0.0,0.0
2023-10-11 15:10:36.868,-1.1,1.2,60,0.0,0.0,0.0,0.0,0.0,0.028,-0.0,-0.4,7.1,-0.180,-0.180,0.000,0.000,0.0,00:00:00,3.0,0,--.--,145,--.--,0,0001:24:26,0,0,0,23.88,0.03,4102,--.--,81,--.--,--:--:--,1,0.72,15:10:35,10/11/2023,--.--,--.--,--.--,--.--,--.--,--.--,--.--,--.--,--.--,--.--,--.--,--.--,0,0.000,0.000,0.000,0.000,0.000,0.000,0.000,0.000,0.000,0.000,0.000,0.000,false,false,false,false,false,false,false,false,false,false,false,false,--.--,--.--,--.--,--.--,--.--,--.--,--.--,--.--,10.0001095,76.3542761,43PFM 48435 05729,0.7,1.1,102.5,3,15,--.--,--.--,,--.--,--.--,--.--,0,0,--.--,--.--,0,1.6,-2.0,-0.0,-0.0,0.0,0.0,--.--,--.--,--.--,--.--,--.--,--.--,--.--,--.--,--.--,--.--,--.--,--.--,45.72,49.29,--.--,0,224,0.0,0.0,0.0,0,0,0,180.0,0.0,0.0
2023-10-11 15:10:37.868,-1.2,1.2,60,0.0,0.0,0.0,0.0,0.0,0.025,-0.0,-0.4,7.1,-0.170,-0.180,0.000,0.000,0.0,00:00:00,3.0,0,--.--,146,--.--,0,0001:24:26,0,0,0,23.91,0.03,4102,--.--,81,--.--,--:--:--,1,0.72,15:10:36,10/11/2023,--.--,--.--,--.--,--.--,--.--,--.--,--.--,--.--,--.--,--.--,--.--,--.--,0,0.000,0.000,0.000,0.000,0.000,0.000,0.000,0.000,0.000,0.000,0.000,0.000,false,false,false,false,false,false,false,false,false,false,false,false,--.--,--.--,--.--,--.--,--.--,--.--,--.--,--.--,10.0001095,76.3542761,43PFM 48435 05729,0.7,1.1,84.3,3,15,--.--,--.--,,--.--,--.--,--.--,0,0,--.--,--.--,0,1.6,-2.0,-0.0,-0.0,0.0,0.0,--.--,--.--,--.--,--.--,--.--,--.--,--.--,--.--,--.--,--.--,--.--,--.--,45.71,49.30,--.--,0,224,0.0,0.0,0.0,0,0,0,180.0,0.0,0.0
2023-10-11 15:10:38.864,-1.2,1.2,60,0.0,0.0,0.0,0.0,0.0,0.022,-0.0,-0.4,7.1,-0.160,-0.160,0.000,0.000,0.0,00:00:00,3.0,0,--.--,146,--.--,0,0001:24:26,0,0,0,23.88,0.04,4102,--.--,81,--.--,--:--:--,1,0.96,15:10:37,10/11/2023,--.--,--.--,--.--,--.--,--.--,--.--,--.--,--.--,--.--,--.--,--.--,--.--,0,0.000,0.000,0.000,0.000,0.000,0.000,0.000,0.000,0.000,0.000,0.000,0.000,false,false,false,false,false,false,false,false,false,false,false,false,--.--,--.--,--.--,--.--,--.--,--.--,--.--,--.--,10.0001095,76.3542762,43PFM 48435 05729,0.7,1.1,270.0,3,15,--.--,--.--,,--.--,--.--,--.--,0,0,--.--,--.--,0,1.6,-2.0,-0.1,-0.0,0.0,0.0,--.--,--.--,--.--,--.--,--.--,--.--,--.--,--.--,--.--,--.--,--.--,--.--,45.71,49.32,--.--,0,224,0.0,0.0,0.0,0,0,0,180.0,0.0,0.0
2023-10-11 15:10:39.865,-1.1,1.2,60,0.0,0.0,0.0,0.0,0.0,0.021,-0.0,-0.4,7.1,-0.150,-0.150,0.000,0.000,0.0,00:00:00,3.0,0,--.--,146,--.--,0,0001:24:26,0,0,0,23.84,0.01,4102,--.--,81,--.--,--:--:--,1,0.24,15:10:38,10/11/2023,--.--,--.--,--.--,--.--,--.--,--.--,--.--,--.--,--.--,--.--,--.--,--.--,0,0.000,0.000,0.000,0.000,0.000,0.000,0.000,0.000,0.000,0.000,0.000,0.000,false,false,false,false,false,false,false,false,false,false,false,false,--.--,--.--,--.--,--.--,--.--,--.--,--.--,--.--,10.0001093,76.3542764,43PFM 48435 05729,0.7,1.1,109.7,3,15,--.--,--.--,,--.--,--.--,--.--,0,0,--.--,--.--,0,1.6,-2.0,-0.1,-0.0,0.0,0.0,--.--,--.--,--.--,--.--,--.--,--.--,--.--,--.--,--.--,--.--,--.--,--.--,45.72,49.33,--.--,0,224,0.0,0.0,0.0,0,0,0,180.0,0.0,0.0
2023-10-11 15:10:40.864,-1.2,1.2,60,0.0,0.0,0.0,0.0,0.0,0.021,-0.0,-0.4,7.1,-0.160,-0.160,0.000,0.000,0.0,00:00:00,3.0,0,--.--,146,--.--,0,0001:24:26,0,0,0,23.90,0.03,4102,--.--,81,--.--,--:--:--,1,0.72,15:10:39,10/11/2023,--.--,--.--,--.--,--.--,--.--,--.--,--.--,--.--,--.--,--.--,--.--,--.--,0,0.000,0.000,0.000,0.000,0.000,0.000,0.000,0.000,0.000,0.000,0.000,0.000,false,false,false,false,false,false,false,false,false,false,false,false,--.--,--.--,--.--,--.--,--.--,--.--,--.--,--.--,10.0001092,76.3542764,43PFM 48435 05729,0.7,1.1,208.6,3,15,--.--,--.--,,--.--,--.--,--.--,0,0,--.--,--.--,0,1.6,-2.0,-0.1,-0.0,0.0,0.0,--.--,--.--,--.--,--.--,--.--,--.--,--.--,--.--,--.--,--.--,--.--,--.--,45.73,49.34,--.--,0,224,0.0,0.0,0.0,0,0,0,180.0,0.0,0.0
2023-10-11 15:10:41.864,-1.2,1.2,60,0.0,0.0,0.0,0.0,0.0,0.020,-0.0,-0.4,7.1,-0.160,-0.170,0.000,0.000,0.0,00:00:00,3.0,0,--.--,146,--.--,0,0001:24:26,0,0,0,23.85,0.02,4102,--.--,81,--.--,--:--:--,1,0.48,15:10:40,10/11/2023,--.--,--.--,--.--,--.--,--.--,--.--,--.--,--.--,--.--,--.--,--.--,--.--,0,0.000,0.000,0.000,0.000,0.000,0.000,0.000,0.000,0.000,0.000,0.000,0.000,false,false,false,false,false,false,false,false,false,false,false,false,--.--,--.--,--.--,--.--,--.--,--.--,--.--,--.--,10.0001092,76.3542763,43PFM 48435 05729,0.7,1.1,227.3,3,15,--.--,--.--,,--.--,--.--,--.--,0,0,--.--,--.--,0,1.6,-2.0,-0.1,0.0,-0.0,0.0,--.--,--.--,--.--,--.--,--.--,--.--,--.--,--.--,--.--,--.--,--.--,--.--,45.72,49.35,--.--,0,224,0.0,0.0,0.0,0,0,0,180.0,0.0,0.0
2023-10-11 15:10:42.884,-1.2,1.2,60,0.0,0.0,0.0,0.0,0.1,0.079,-0.1,-0.4,7.1,-0.200,-0.180,0.000,0.000,0.0,00:00:00,3.0,0,--.--,146,--.--,0,0001:24:26,0,0,0,23.89,0.03,4102,--.--,81,--.--,--:--:--,1,0.72,15:10:41,10/11/2023,--.--,--.--,--.--,--.--,--.--,--.--,--.--,--.--,--.--,--.--,--.--,--.--,0,0.000,0.000,0.000,0.000,0.000,0.000,0.000,0.000,0.000,0.000,0.000,0.000,false,false,false,false,false,false,false,false,false,false,false,false,--.--,--.--,--.--,--.--,--.--,--.--,--.--,--.--,10.0001091,76.3542763,43PFM 48435 05729,0.7,1.1,133.5,3,15,--.--,--.--,,--.--,--.--,--.--,0,0,--.--,--.--,0,1.6,-2.0,-0.0,-0.0,-0.0,0.1,--.--,--.--,--.--,--.--,--.--,--.--,--.--,--.--,--.--,--.--,--.--,--.--,45.72,49.36,--.--,0,224,0.0,0.0,0.0,0,0,0,180.0,0.0,0.0
2023-10-11 15:10:43.882,-1.2,1.2,60,0.0,0.0,0.0,0.0,0.1,0.113,-0.1,-0.4,7.1,-0.230,-0.230,0.000,0.000,0.0,00:00:00,3.0,0,--.--,146,--.--,0,0001:24:26,0,0,0,23.91,0.03,4102,--.--,81,--.--,--:--:--,1,0.72,15:10:42,10/11/2023,--.--,--.--,--.--,--.--,--.--,--.--,--.--,--.--,--.--,--.--,--.--,--.--,0,0.000,0.000,0.000,0.000,0.000,0.000,0.000,0.000,0.000,0.000,0.000,0.000,false,false,false,false,false,false,false,false,false,false,false,false,--.--,--.--,--.--,--.--,--.--,--.--,--.--,--.--,10.0001089,76.3542763,43PFM 48435 05729,0.7,1.1,129.0,3,15,--.--,--.--,,--.--,--.--,--.--,0,0,--.--,--.--,0,1.6,-2.0,0.0,-0.0,-0.0,0.1,--.--,--.--,--.--,--.--,--.--,--.--,--.--,--.--,--.--,--.--,--.--,--.--,45.72,49.38,--.--,0,224,0.0,0.0,0.0,0,0,0,180.0,0.0,0.0
2023-10-11 15:10:44.895,-1.2,1.2,60,0.0,0.0,0.0,0.0,0.1,0.096,-0.1,-0.4,7.1,-0.210,-0.230,0.000,0.000,0.0,00:00:00,3.0,0,--.--,146,--.--,0,0001:24:26,0,0,0,23.83,0.01,4102,--.--,81,--.--,--:--:--,1,0.24,15:10:43,10/11/2023,--.--,--.--,--.--,--.--,--.--,--.--,--.--,--.--,--.--,--.--,--.--,--.--,0,0.000,0.000,0.000,0.000,0.000,0.000,0.000,0.000,0.000,0.000,0.000,0.000,false,false,false,false,false,false,false,false,false,false,false,false,--.--,--.--,--.--,--.--,--.--,--.--,--.--,--.--,10.0001089,76.3542763,43PFM 48435 05729,0.7,1.1,270.0,3,15,--.--,--.--,,--.--,--.--,--.--,0,0,--.--,--.--,0,1.6,-2.0,0.0,-0.0,-0.0,0.1,--.--,--.--,--.--,--.--,--.--,--.--,--.--,--.--,--.--,--.--,--.--,--.--,45.72,49.38,--.--,0,224,0.0,0.0,0.0,0,0,0,180.0,0.0,0.0
2023-10-11 15:10:45.896,-1.2,1.2,60,0.0,0.0,0.0,0.0,0.0,0.022,-0.0,-0.3,7.2,-0.130,-0.150,0.000,0.000,0.0,00:00:00,3.0,0,--.--,145,--.--,0,0001:24:26,0,0,0,23.91,0.04,4102,--.--,81,--.--,--:--:--,1,0.96,15:10:44,10/11/2023,--.--,--.--,--.--,--.--,--.--,--.--,--.--,--.--,--.--,--.--,--.--,--.--,0,0.000,0.000,0.000,0.000,0.000,0.000,0.000,0.000,0.000,0.000,0.000,0.000,false,false,false,false,false,false,false,false,false,false,false,false,--.--,--.--,--.--,--.--,--.--,--.--,--.--,--.--,10.0001089,76.3542761,43PFM 48435 05729,0.7,1.1,180.0,3,15,--.--,--.--,,--.--,--.--,--.--,0,0,--.--,--.--,0,1.6,-2.0,-0.1,-0.0,-0.0,0.0,--.--,--.--,--.--,--.--,--.--,--.--,--.--,--.--,--.--,--.--,--.--,--.--,45.72,49.40,--.--,0,224,0.0,0.0,0.0,0,0,0,180.0,0.0,0.0
2023-10-11 15:10:46.902,-1.2,1.2,60,0.0,0.0,0.0,0.0,0.0,0.014,0.0,-0.3,7.2,-0.100,-0.100,0.000,0.000,0.0,00:00:00,3.0,0,--.--,145,--.--,0,0001:24:26,0,0,0,23.89,0.04,4102,--.--,81,--.--,--:--:--,1,0.96,15:10:45,10/11/2023,--.--,--.--,--.--,--.--,--.--,--.--,--.--,--.--,--.--,--.--,--.--,--.--,0,0.000,0.000,0.000,0.000,0.000,0.000,0.000,0.000,0.000,0.000,0.000,0.000,false,false,false,false,false,false,false,false,false,false,false,false,--.--,--.--,--.--,--.--,--.--,--.--,--.--,--.--,10.0001089,76.3542760,43PFM 48435 05729,0.7,1.1,153.4,3,15,--.--,--.--,,--.--,--.--,--.--,0,0,--.--,--.--,0,1.5,-2.0,-0.1,-0.0,0.0,-0.0,--.--,--.--,--.--,--.--,--.--,--.--,--.--,--.--,--.--,--.--,--.--,--.--,45.72,49.41,--.--,0,224,0.0,0.0,0.0,0,0,0,180.0,0.0,0.0
2023-10-11 15:10:47.896,-1.2,1.2,60,0.0,0.0,0.0,0.0,0.0,0.009,0.0,-0.3,7.2,-0.100,-0.110,0.000,0.000,0.0,00:00:00,2.9,0,--.--,145,--.--,0,0001:24:26,0,0,0,23.82,0.01,4102,--.--,81,--.--,--:--:--,1,0.24,15:10:46,10/11/2023,--.--,--.--,--.--,--.--,--.--,--.--,--.--,--.--,--.--,--.--,--.--,--.--,0,0.000,0.000,0.000,0.000,0.000,0.000,0.000,0.000,0.000,0.000,0.000,0.000,false,false,false,false,false,false,false,false,false,false,false,false,--.--,--.--,--.--,--.--,--.--,--.--,--.--,--.--,10.0001089,76.3542759,43PFM 48435 05729,0.7,1.1,169.0,3,15,--.--,--.--,,--.--,--.--,--.--,0,0,--.--,--.--,0,1.5,-2.0,-0.1,-0.0,-0.0,-0.0,--.--,--.--,--.--,--.--,--.--,--.--,--.--,--.--,--.--,--.--,--.--,--.--,45.73,49.42,--.--,0,224,0.0,0.0,0.0,0,0,0,180.0,0.0,0.0
2023-10-11 15:10:48.894,-1.2,1.2,60,0.0,0.0,0.0,0.0,0.0,0.012,0.0,-0.3,7.2,-0.100,-0.100,0.000,0.000,0.0,00:00:00,3.0,0,--.--,145,--.--,0,0001:24:26,0,0,0,23.85,0.02,4102,--.--,81,--.--,--:--:--,1,0.48,15:10:47,10/11/2023,--.--,--.--,--.--,--.--,--.--,--.--,--.--,--.--,--.--,--.--,--.--,--.--,0,0.000,0.000,0.000,0.000,0.000,0.000,0.000,0.000,0.000,0.000,0.000,0.000,false,false,false,false,false,false,false,false,false,false,false,false,--.--,--.--,--.--,--.--,--.--,--.--,--.--,--.--,10.0001089,76.3542758,43PFM 48435 05729,0.7,1.1,99.5,3,15,--.--,--.--,,--.--,--.--,--.--,0,0,--.--,--.--,0,1.5,-2.0,-0.1,-0.0,-0.0,-0.0,--.--,--.--,--.--,--.--,--.--,--.--,--.--,--.--,--.--,--.--,--.--,--.--,45.73,49.43,--.--,0,224,0.0,0.0,0.0,0,0,0,180.0,0.0,0.0
2023-10-11 15:10:49.898,-1.1,1.2,60,0.0,0.0,0.0,0.0,0.0,0.015,0.0,-0.3,7.2,-0.070,-0.070,0.000,0.000,0.0,00:00:00,3.0,0,--.--,145,--.--,0,0001:24:26,0,0,0,23.87,0.02,4102,--.--,81,--.--,--:--:--,1,0.48,15:10:48,10/11/2023,--.--,--.--,--.--,--.--,--.--,--.--,--.--,--.--,--.--,--.--,--.--,--.--,0,0.000,0.000,0.000,0.000,0.000,0.000,0.000,0.000,0.000,0.000,0.000,0.000,false,false,false,false,false,false,false,false,false,false,false,false,--.--,--.--,--.--,--.--,--.--,--.--,--.--,--.--,10.0001088,76.3542758,43PFM 48435 05729,0.7,1.1,275.7,3,15,--.--,--.--,,--.--,--.--,--.--,0,0,--.--,--.--,0,1.5,-2.0,-0.1,-0.0,0.0,-0.0,--.--,--.--,--.--,--.--,--.--,--.--,--.--,--.--,--.--,--.--,--.--,--.--,45.72,49.44,--.--,0,224,0.0,0.0,0.0,0,0,0,180.0,0.0,0.0
2023-10-11 15:10:50.894,-1.1,1.2,60,0.0,0.0,0.0,0.0,0.0,0.024,0.0,-0.2,7.3,-0.040,-0.040,0.000,0.000,0.0,00:00:00,2.9,0,--.--,145,--.--,0,0001:24:26,0,0,0,23.88,0.03,4102,--.--,81,--.--,--:--:--,1,0.72,15:10:49,10/11/2023,--.--,--.--,--.--,--.--,--.--,--.--,--.--,--.--,--.--,--.--,--.--,--.--,0,0.000,0.000,0.000,0.000,0.000,0.000,0.000,0.000,0.000,0.000,0.000,0.000,false,false,false,false,false,false,false,false,false,false,false,false,--.--,--.--,--.--,--.--,--.--,--.--,--.--,--.--,10.0001087,76.3542758,43PFM 48435 05729,0.7,1.1,141.3,3,15,--.--,--.--,,--.--,--.--,--.--,0,0,--.--,--.--,0,1.5,-2.0,-0.2,-0.0,0.0,-0.0,--.--,--.--,--.--,--.--,--.--,--.--,--.--,--.--,--.--,--.--,--.--,--.--,45.72,49.45,--.--,0,224,0.0,0.0,0.0,0,0,0,180.0,0.0,0.0
2023-10-11 15:10:52.120,-1.2,1.2,60,0.0,0.0,0.0,0.0,0.0,0.020,0.0,-0.3,7.2,-0.070,-0.050,0.000,0.000,0.0,00:00:00,2.9,0,--.--,144,--.--,0,0001:24:26,0,0,0,23.89,0.02,4102,--.--,81,--.--,--:--:--,1,0.48,15:10:50,10/11/2023,--.--,--.--,--.--,--.--,--.--,--.--,--.--,--.--,--.--,--.--,--.--,--.--,0,0.000,0.000,0.000,0.000,0.000,0.000,0.000,0.000,0.000,0.000,0.000,0.000,false,false,false,false,false,false,false,false,false,false,false,false,--.--,--.--,--.--,--.--,--.--,--.--,--.--,--.--,10.0001087,76.3542757,43PFM 48435 05729,0.7,1.1,229.4,3,15,--.--,--.--,,--.--,--.--,--.--,0,0,--.--,--.--,0,1.5,-2.0,-0.2,-0.0,-0.0,-0.0,--.--,--.--,--.--,--.--,--.--,--.--,--.--,--.--,--.--,--.--,--.--,--.--,45.72,49.46,--.--,0,224,0.0,0.0,0.0,0,0,0,180.0,0.0,0.0
2023-10-11 15:10:52.900,-1.2,1.2,60,0.0,0.0,0.0,0.0,0.0,0.005,-0.0,-0.3,7.2,-0.090,-0.090,0.000,0.000,0.0,00:00:00,3.0,0,--.--,144,--.--,0,0001:24:26,0,0,0,23.83,0.02,4102,--.--,81,--.--,--:--:--,1,0.48,15:10:52,10/11/2023,--.--,--.--,--.--,--.--,--.--,--.--,--.--,--.--,--.--,--.--,--.--,--.--,0,0.000,0.000,0.000,0.000,0.000,0.000,0.000,0.000,0.000,0.000,0.000,0.000,false,false,false,false,false,false,false,false,false,false,false,false,--.--,--.--,--.--,--.--,--.--,--.--,--.--,--.--,10.0001089,76.3542756,43PFM 48435 05729,0.7,1.1,53.7,3,15,--.--,--.--,,--.--,--.--,--.--,0,0,--.--,--.--,0,1.5,-2.0,-0.1,-0.0,-0.0,-0.0,--.--,--.--,--.--,--.--,--.--,--.--,--.--,--.--,--.--,--.--,--.--,--.--,45.72,49.47,--.--,0,224,0.0,0.0,0.0,0,0,0,180.0,0.0,0.0
2023-10-11 15:10:53.900,-1.2,1.2,60,0.0,0.0,0.0,0.0,0.0,0.002,0.0,-0.3,7.2,-0.090,-0.100,0.000,0.000,0.0,00:00:00,3.0,0,--.--,144,--.--,0,0001:24:26,0,0,0,23.84,0.01,4102,--.--,81,--.--,--:--:--,1,0.24,15:10:52,10/11/2023,--.--,--.--,--.--,--.--,--.--,--.--,--.--,--.--,--.--,--.--,--.--,--.--,0,0.000,0.000,0.000,0.000,0.000,0.000,0.000,0.000,0.000,0.000,0.000,0.000,false,false,false,false,false,false,false,false,false,false,false,false,--.--,--.--,--.--,--.--,--.--,--.--,--.--,--.--,10.0001089,76.3542756,43PFM 48435 05729,0.7,1.1,312.5,3,15,--.--,--.--,,--.--,--.--,--.--,0,0,--.--,--.--,0,1.5,-2.0,-0.1,-0.0,0.0,-0.0,--.--,--.--,--.--,--.--,--.--,--.--,--.--,--.--,--.--,--.--,--.--,--.--,45.72,49.49,--.--,0,224,0.0,0.0,0.0,0,0,0,180.0,0.0,0.0
2023-10-11 15:10:54.916,-1.1,1.2,60,0.0,0.0,0.0,0.0,0.0,0.012,0.0,-0.3,7.2,-0.080,-0.080,0.000,0.000,0.0,00:00:00,3.0,0,--.--,144,--.--,0,0001:24:26,0,0,0,23.83,0.01,4102,--.--,81,--.--,--:--:--,1,0.24,15:10:53,10/11/2023,--.--,--.--,--.--,--.--,--.--,--.--,--.--,--.--,--.--,--.--,--.--,--.--,0,0.000,0.000,0.000,0.000,0.000,0.000,0.000,0.000,0.000,0.000,0.000,0.000,false,false,false,false,false,false,false,false,false,false,false,false,--.--,--.--,--.--,--.--,--.--,--.--,--.--,--.--,10.0001088,76.3542756,43PFM 48435 05729,0.7,1.1,127.9,3,15,--.--,--.--,,--.--,--.--,--.--,0,0,--.--,--.--,0,1.5,-2.0,-0.1,-0.0,0.0,-0.0,--.--,--.--,--.--,--.--,--.--,--.--,--.--,--.--,--.--,--.--,--.--,--.--,45.71,49.49,--.--,0,224,0.0,0.0,0.0,0,0,0,180.0,0.0,0.0
2023-10-11 15:10:55.915,-1.1,1.2,60,0.0,0.0,0.0,0.0,0.0,0.014,0.0,-0.3,7.2,-0.080,-0.080,0.000,0.000,0.0,00:00:00,2.9,0,--.--,144,--.--,0,0001:24:26,0,0,0,23.91,0.03,4102,--.--,81,--.--,--:--:--,1,0.72,15:10:54,10/11/2023,--.--,--.--,--.--,--.--,--.--,--.--,--.--,--.--,--.--,--.--,--.--,--.--,0,0.000,0.000,0.000,0.000,0.000,0.000,0.000,0.000,0.000,0.000,0.000,0.000,false,false,false,false,false,false,false,false,false,false,false,false,--.--,--.--,--.--,--.--,--.--,--.--,--.--,--.--,10.0001087,76.3542756,43PFM 48435 05729,0.7,1.1,109.3,3,15,--.--,--.--,,--.--,--.--,--.--,0,0,--.--,--.--,0,1.5,-2.0,-0.1,-0.0,0.0,-0.0,--.--,--.--,--.--,--.--,--.--,--.--,--.--,--.--,--.--,--.--,--.--,--.--,45.71,49.50,--.--,0,224,0.0,0.0,0.0,0,0,0,180.0,0.0,0.0
2023-10-11 15:10:56.916,-1.1,1.2,60,0.0,0.0,0.0,0.0,0.0,0.012,0.0,-0.3,7.2,-0.090,-0.090,0.000,0.000,0.0,00:00:00,3.0,0,--.--,144,--.--,0,0001:24:26,0,0,0,23.84,0.02,4102,--.--,81,--.--,--:--:--,1,0.48,15:10:55,10/11/2023,--.--,--.--,--.--,--.--,--.--,--.--,--.--,--.--,--.--,--.--,--.--,--.--,0,0.000,0.000,0.000,0.000,0.000,0.000,0.000,0.000,0.000,0.000,0.000,0.000,false,false,false,false,false,false,false,false,false,false,false,false,--.--,--.--,--.--,--.--,--.--,--.--,--.--,--.--,10.0001086,76.3542756,43PFM 48435 05729,0.7,1.1,296.6,3,15,--.--,--.--,,--.--,--.--,--.--,0,0,--.--,--.--,0,1.5,-2.0,-0.1,-0.0,0.0,-0.0,--.--,--.--,--.--,--.--,--.--,--.--,--.--,--.--,--.--,--.--,--.--,--.--,45.71,49.51,--.--,0,224,0.0,0.0,0.0,0,0,0,180.0,0.0,0.0
2023-10-11 15:10:57.916,-1.2,1.2,60,0.0,0.0,0.0,0.0,0.0,0.007,0.0,-0.3,7.2,-0.100,-0.100,0.000,0.000,0.0,00:00:00,3.0,0,--.--,144,--.--,0,0001:24:26,0,0,0,23.83,0.02,4102,--.--,81,--.--,--:--:--,1,0.48,15:10:56,10/11/2023,--.--,--.--,--.--,--.--,--.--,--.--,--.--,--.--,--.--,--.--,--.--,--.--,0,0.000,0.000,0.000,0.000,0.000,0.000,0.000,0.000,0.000,0.000,0.000,0.000,false,false,false,false,false,false,false,false,false,false,false,false,--.--,--.--,--.--,--.--,--.--,--.--,--.--,--.--,10.0001087,76.3542754,43PFM 48435 05729,0.7,1.1,216.9,3,15,--.--,--.--,,--.--,--.--,--.--,0,0,--.--,--.--,0,1.5,-2.0,-0.1,-0.0,0.0,-0.0,--.--,--.--,--.--,--.--,--.--,--.--,--.--,--.--,--.--,--.--,--.--,--.--,45.71,49.52,--.--,0,224,0.0,0.0,0.0,0,0,0,180.0,0.0,0.0
2023-10-11 15:10:58.913,-1.2,1.2,60,0.0,0.0,0.0,0.0,0.0,0.006,0.0,-0.3,7.2,-0.100,-0.100,0.000,0.000,0.0,00:00:00,3.0,0,--.--,144,--.--,0,0001:24:26,0,0,0,23.89,0.03,4102,--.--,81,--.--,--:--:--,1,0.72,15:10:57,10/11/2023,--.--,--.--,--.--,--.--,--.--,--.--,--.--,--.--,--.--,--.--,--.--,--.--,0,0.000,0.000,0.000,0.000,0.000,0.000,0.000,0.000,0.000,0.000,0.000,0.000,false,false,false,false,false,false,false,false,false,false,false,false,--.--,--.--,--.--,--.--,--.--,--.--,--.--,--.--,10.0001088,76.3542752,43PFM 48435 05729,0.7,1.1,233.1,3,15,--.--,--.--,,--.--,--.--,--.--,0,0,--.--,--.--,0,1.5,-2.0,-0.1,0.0,-0.0,-0.0,--.--,--.--,--.--,--.--,--.--,--.--,--.--,--.--,--.--,--.--,--.--,--.--,45.71,49.53,--.--,0,224,0.0,0.0,0.0,0,0,0,180.0,0.0,0.0
2023-10-11 15:10:59.915,-1.1,1.2,60,0.0,0.0,0.0,0.0,0.0,0.009,0.0,-0.3,7.2,-0.100,-0.090,0.000,0.000,0.0,00:00:00,3.0,0,--.--,144,--.--,0,0001:24:26,0,0,0,23.87,0.02,4102,--.--,81,--.--,--:--:--,1,0.48,15:10:58,10/11/2023,--.--,--.--,--.--,--.--,--.--,--.--,--.--,--.--,--.--,--.--,--.--,--.--,0,0.000,0.000,0.000,0.000,0.000,0.000,0.000,0.000,0.000,0.000,0.000,0.000,false,false,false,false,false,false,false,false,false,false,false,false,--.--,--.--,--.--,--.--,--.--,--.--,--.--,--.--,10.0001086,76.3542752,43PFM 48435 05729,0.7,1.1,167.5,3,15,--.--,--.--,,--.--,--.--,--.--,0,0,--.--,--.--,0,1.5,-2.0,-0.1,-0.0,0.0,-0.0,--.--,--.--,--.--,--.--,--.--,--.--,--.--,--.--,--.--,--.--,--.--,--.--,45.72,49.54,--.--,0,224,0.0,0.0,0.0,0,0,0,180.0,0.0,0.0
2023-10-11 15:11:00.913,-1.1,1.2,60,0.0,0.0,0.0,0.0,0.0,0.009,-0.0,-0.3,7.2,-0.120,-0.110,0.000,0.000,0.0,00:00:00,3.0,0,--.--,144,--.--,0,0001:24:26,0,0,0,23.91,0.03,4102,--.--,81,--.--,--:--:--,1,0.72,15:10:59,10/11/2023,--.--,--.--,--.--,--.--,--.--,--.--,--.--,--.--,--.--,--.--,--.--,--.--,0,0.000,0.000,0.000,0.000,0.000,0.000,0.000,0.000,0.000,0.000,0.000,0.000,false,false,false,false,false,false,false,false,false,false,false,false,--.--,--.--,--.--,--.--,--.--,--.--,--.--,--.--,10.0001086,76.3542751,43PFM 48435 05729,0.7,1.1,84.8,3,15,--.--,--.--,,--.--,--.--,--.--,0,0,--.--,--.--,0,1.5,-2.0,-0.1,-0.0,0.0,0.0,--.--,--.--,--.--,--.--,--.--,--.--,--.--,--.--,--.--,--.--,--.--,--.--,45.72,49.54,--.--,0,224,0.0,0.0,0.0,0,0,0,180.0,0.0,0.0
